{
"name": "Coop",
"type": "FeatureCollection",
"crs": { "type": "name", "properties": { "name": "urn:ogc:def:crs:OGC:1.3:CRS84" } },
"features": [
{ "type": "Feature", "properties": { "Name": "Coop Mutschellen", "Description": "" }, "geometry": { "type": "Point", "coordinates": [ 8.36771, 47.36171, 0.0 ] } },
{ "type": "Feature", "properties": { "Name": "Coop Nussbaumen", "Description": "" }, "geometry": { "type": "Point", "coordinates": [ 8.29189, 47.4886, 0.0 ] } },
{ "type": "Feature", "properties": { "Name": "Coop Bad Zurzach", "Description": "" }, "geometry": { "type": "Point", "coordinates": [ 8.29219, 47.58904, 0.0 ] } },
{ "type": "Feature", "properties": { "Name": "Coop Kleindoettingen", "Description": "" }, "geometry": { "type": "Point", "coordinates": [ 8.24887, 47.57229, 0.0 ] } },
{ "type": "Feature", "properties": { "Name": "Coop Sissach", "Description": "" }, "geometry": { "type": "Point", "coordinates": [ 7.81366, 47.46348, 0.0 ] } },
{ "type": "Feature", "properties": { "Name": "Coop Stein AG", "Description": "" }, "geometry": { "type": "Point", "coordinates": [ 7.95231, 47.54637, 0.0 ] } },
{ "type": "Feature", "properties": { "Name": "Coop Rheinfelden", "Description": "" }, "geometry": { "type": "Point", "coordinates": [ 7.79171, 47.55247, 0.0 ] } },
{ "type": "Feature", "properties": { "Name": "Coop Basel Klybeck", "Description": "" }, "geometry": { "type": "Point", "coordinates": [ 7.59064, 47.5691, 0.0 ] } },
{ "type": "Feature", "properties": { "Name": "Coop Riehen Rauracher", "Description": "" }, "geometry": { "type": "Point", "coordinates": [ 7.63291, 47.57079, 0.0 ] } },
{ "type": "Feature", "properties": { "Name": "Coop Aesch", "Description": "" }, "geometry": { "type": "Point", "coordinates": [ 7.59552, 47.46924, 0.0 ] } },
{ "type": "Feature", "properties": { "Name": "Coop Muttenz Freidorf", "Description": "" }, "geometry": { "type": "Point", "coordinates": [ 7.62737, 47.53575, 0.0 ] } },
{ "type": "Feature", "properties": { "Name": "Coop Basel Aeschenplatz", "Description": "" }, "geometry": { "type": "Point", "coordinates": [ 7.5946, 47.55179, 0.0 ] } },
{ "type": "Feature", "properties": { "Name": "Coop Basel Bachletten", "Description": "" }, "geometry": { "type": "Point", "coordinates": [ 7.58062, 47.55133, 0.0 ] } },
{ "type": "Feature", "properties": { "Name": "Coop Birsfelden", "Description": "" }, "geometry": { "type": "Point", "coordinates": [ 7.62181, 47.55287, 0.0 ] } },
{ "type": "Feature", "properties": { "Name": "Coop Gelterkinden", "Description": "" }, "geometry": { "type": "Point", "coordinates": [ 7.85171, 47.46493, 0.0 ] } },
{ "type": "Feature", "properties": { "Name": "Coop Basel Baeumlihof", "Description": "" }, "geometry": { "type": "Point", "coordinates": [ 7.6179, 47.5651, 0.0 ] } },
{ "type": "Feature", "properties": { "Name": "Coop Basel Pfauen", "Description": "" }, "geometry": { "type": "Point", "coordinates": [ 7.5908, 47.55565, 0.0 ] } },
{ "type": "Feature", "properties": { "Name": "Coop S. Antonino", "Description": "" }, "geometry": { "type": "Point", "coordinates": [ 8.96594, 46.15455, 0.0 ] } },
{ "type": "Feature", "properties": { "Name": "Coop Biel Boezingen", "Description": "" }, "geometry": { "type": "Point", "coordinates": [ 7.27622, 47.15474, 0.0 ] } },
{ "type": "Feature", "properties": { "Name": "Coop Bern Breitenrain", "Description": "" }, "geometry": { "type": "Point", "coordinates": [ 7.45501, 46.95927, 0.0 ] } },
{ "type": "Feature", "properties": { "Name": "Coop Muenchenbuchsee", "Description": "" }, "geometry": { "type": "Point", "coordinates": [ 7.44469, 47.01983, 0.0 ] } },
{ "type": "Feature", "properties": { "Name": "Coop Plaffeien", "Description": "" }, "geometry": { "type": "Point", "coordinates": [ 7.29007, 46.73997, 0.0 ] } },
{ "type": "Feature", "properties": { "Name": "Coop Laupen", "Description": "" }, "geometry": { "type": "Point", "coordinates": [ 7.23942, 46.90017, 0.0 ] } },
{ "type": "Feature", "properties": { "Name": "Coop Couvet", "Description": "" }, "geometry": { "type": "Point", "coordinates": [ 6.62442, 46.92199, 0.0 ] } },
{ "type": "Feature", "properties": { "Name": "Coop Saint-Aubin", "Description": "" }, "geometry": { "type": "Point", "coordinates": [ 6.77595, 46.89598, 0.0 ] } },
{ "type": "Feature", "properties": { "Name": "Coop Saint-Imier", "Description": "" }, "geometry": { "type": "Point", "coordinates": [ 7.00001, 47.15349, 0.0 ] } },
{ "type": "Feature", "properties": { "Name": "Coop Thun Kyburg", "Description": "" }, "geometry": { "type": "Point", "coordinates": [ 7.62739, 46.76058, 0.0 ] } },
{ "type": "Feature", "properties": { "Name": "Coop Uetendorf", "Description": "" }, "geometry": { "type": "Point", "coordinates": [ 7.57229, 46.77476, 0.0 ] } },
{ "type": "Feature", "properties": { "Name": "Coop Zweisimmen", "Description": "" }, "geometry": { "type": "Point", "coordinates": [ 7.37353, 46.55588, 0.0 ] } },
{ "type": "Feature", "properties": { "Name": "Coop Gstaad", "Description": "" }, "geometry": { "type": "Point", "coordinates": [ 7.28257, 46.47656, 0.0 ] } },
{ "type": "Feature", "properties": { "Name": "Coop Brienz", "Description": "" }, "geometry": { "type": "Point", "coordinates": [ 8.03698, 46.75461, 0.0 ] } },
{ "type": "Feature", "properties": { "Name": "Coop Waedenswil", "Description": "" }, "geometry": { "type": "Point", "coordinates": [ 8.67238, 47.23034, 0.0 ] } },
{ "type": "Feature", "properties": { "Name": "Coop Horgen Leue-Huus", "Description": "" }, "geometry": { "type": "Point", "coordinates": [ 8.59874, 47.25903, 0.0 ] } },
{ "type": "Feature", "properties": { "Name": "Coop Zuerich Scheffelstrasse", "Description": "" }, "geometry": { "type": "Point", "coordinates": [ 8.52978, 47.39422, 0.0 ] } },
{ "type": "Feature", "properties": { "Name": "Coop Bonstetten", "Description": "" }, "geometry": { "type": "Point", "coordinates": [ 8.46847, 47.32418, 0.0 ] } },
{ "type": "Feature", "properties": { "Name": "Coop Kuesnacht Dorf", "Description": "" }, "geometry": { "type": "Point", "coordinates": [ 8.58158, 47.31796, 0.0 ] } },
{ "type": "Feature", "properties": { "Name": "Coop Solothurn Rosengarten", "Description": "" }, "geometry": { "type": "Point", "coordinates": [ 7.53843, 47.2047, 0.0 ] } },
{ "type": "Feature", "properties": { "Name": "Coop Haegendorf", "Description": "" }, "geometry": { "type": "Point", "coordinates": [ 7.84166, 47.33421, 0.0 ] } },
{ "type": "Feature", "properties": { "Name": "Coop Dagmersellen", "Description": "" }, "geometry": { "type": "Point", "coordinates": [ 7.9903, 47.21209, 0.0 ] } },
{ "type": "Feature", "properties": { "Name": "Coop Derendingen", "Description": "" }, "geometry": { "type": "Point", "coordinates": [ 7.58603, 47.19631, 0.0 ] } },
{ "type": "Feature", "properties": { "Name": "Coop Zuchwil", "Description": "" }, "geometry": { "type": "Point", "coordinates": [ 7.55896, 47.20334, 0.0 ] } },
{ "type": "Feature", "properties": { "Name": "Coop Fribourg Schoenberg", "Description": "" }, "geometry": { "type": "Point", "coordinates": [ 7.17374, 46.80894, 0.0 ] } },
{ "type": "Feature", "properties": { "Name": "Coop Chatel-Saint-Denis", "Description": "" }, "geometry": { "type": "Point", "coordinates": [ 6.89817, 46.52278, 0.0 ] } },
{ "type": "Feature", "properties": { "Name": "Coop Romont", "Description": "" }, "geometry": { "type": "Point", "coordinates": [ 6.91396, 46.69293, 0.0 ] } },
{ "type": "Feature", "properties": { "Name": "Coop Geneve Sports", "Description": "" }, "geometry": { "type": "Point", "coordinates": [ 6.11599, 46.20629, 0.0 ] } },
{ "type": "Feature", "properties": { "Name": "Coop Chene-Bougeries Montagne", "Description": "" }, "geometry": { "type": "Point", "coordinates": [ 6.19998, 46.20438, 0.0 ] } },
{ "type": "Feature", "properties": { "Name": "Coop Geneve Jonction", "Description": "" }, "geometry": { "type": "Point", "coordinates": [ 6.13202, 46.19983, 0.0 ] } },
{ "type": "Feature", "properties": { "Name": "Coop Gland", "Description": "" }, "geometry": { "type": "Point", "coordinates": [ 6.26235, 46.42352, 0.0 ] } },
{ "type": "Feature", "properties": { "Name": "Coop Orbe", "Description": "" }, "geometry": { "type": "Point", "coordinates": [ 6.53119, 46.73226, 0.0 ] } },
{ "type": "Feature", "properties": { "Name": "Coop Echallens", "Description": "" }, "geometry": { "type": "Point", "coordinates": [ 6.63125, 46.64194, 0.0 ] } },
{ "type": "Feature", "properties": { "Name": "Coop Epalinges", "Description": "" }, "geometry": { "type": "Point", "coordinates": [ 6.66035, 46.54371, 0.0 ] } },
{ "type": "Feature", "properties": { "Name": "Coop Lausanne Bergieres", "Description": "" }, "geometry": { "type": "Point", "coordinates": [ 6.61964, 46.53084, 0.0 ] } },
{ "type": "Feature", "properties": { "Name": "Coop Adligenswil", "Description": "" }, "geometry": { "type": "Point", "coordinates": [ 8.36505, 47.07137, 0.0 ] } },
{ "type": "Feature", "properties": { "Name": "Coop Rotkreuz", "Description": "" }, "geometry": { "type": "Point", "coordinates": [ 8.42683, 47.14066, 0.0 ] } },
{ "type": "Feature", "properties": { "Name": "Coop Zug Herti", "Description": "" }, "geometry": { "type": "Point", "coordinates": [ 8.5055, 47.17792, 0.0 ] } },
{ "type": "Feature", "properties": { "Name": "Coop Malters Weihermatte", "Description": "" }, "geometry": { "type": "Point", "coordinates": [ 8.17823, 47.03727, 0.0 ] } },
{ "type": "Feature", "properties": { "Name": "Coop Sempach", "Description": "" }, "geometry": { "type": "Point", "coordinates": [ 8.19393, 47.12355, 0.0 ] } },
{ "type": "Feature", "properties": { "Name": "Coop Root", "Description": "" }, "geometry": { "type": "Point", "coordinates": [ 8.39194, 47.11796, 0.0 ] } },
{ "type": "Feature", "properties": { "Name": "Coop Hochdorf", "Description": "" }, "geometry": { "type": "Point", "coordinates": [ 8.28866, 47.16876, 0.0 ] } },
{ "type": "Feature", "properties": { "Name": "Coop Wolhusen", "Description": "" }, "geometry": { "type": "Point", "coordinates": [ 8.07333, 47.05806, 0.0 ] } },
{ "type": "Feature", "properties": { "Name": "Coop Steckborn", "Description": "" }, "geometry": { "type": "Point", "coordinates": [ 8.9794, 47.66404, 0.0 ] } },
{ "type": "Feature", "properties": { "Name": "Coop Schaffhausen Fronwagplatz", "Description": "" }, "geometry": { "type": "Point", "coordinates": [ 8.6336, 47.69636, 0.0 ] } },
{ "type": "Feature", "properties": { "Name": "Coop Klosters-Platz", "Description": "" }, "geometry": { "type": "Point", "coordinates": [ 9.88274, 46.86732, 0.0 ] } },
{ "type": "Feature", "properties": { "Name": "Coop Herisau", "Description": "" }, "geometry": { "type": "Point", "coordinates": [ 9.27869, 47.38645, 0.0 ] } },
{ "type": "Feature", "properties": { "Name": "Coop Laufen", "Description": "" }, "geometry": { "type": "Point", "coordinates": [ 7.5021, 47.41912, 0.0 ] } },
{ "type": "Feature", "properties": { "Name": "Coop Pratteln Bahnhof", "Description": "" }, "geometry": { "type": "Point", "coordinates": [ 7.69129, 47.52021, 0.0 ] } },
{ "type": "Feature", "properties": { "Name": "Coop Bubendorf", "Description": "" }, "geometry": { "type": "Point", "coordinates": [ 7.73623, 47.45461, 0.0 ] } },
{ "type": "Feature", "properties": { "Name": "Coop Locarno Piazza Grande", "Description": "" }, "geometry": { "type": "Point", "coordinates": [ 8.79467, 46.16914, 0.0 ] } },
{ "type": "Feature", "properties": { "Name": "Coop Biel Mett", "Description": "" }, "geometry": { "type": "Point", "coordinates": [ 7.27228, 47.14342, 0.0 ] } },
{ "type": "Feature", "properties": { "Name": "Coop Kerzers", "Description": "" }, "geometry": { "type": "Point", "coordinates": [ 7.19347, 46.97242, 0.0 ] } },
{ "type": "Feature", "properties": { "Name": "Coop Saignelegier", "Description": "" }, "geometry": { "type": "Point", "coordinates": [ 6.99914, 47.25681, 0.0 ] } },
{ "type": "Feature", "properties": { "Name": "Coop Unterseen", "Description": "" }, "geometry": { "type": "Point", "coordinates": [ 7.84984, 46.68472, 0.0 ] } },
{ "type": "Feature", "properties": { "Name": "Coop Staefa", "Description": "" }, "geometry": { "type": "Point", "coordinates": [ 8.72468, 47.24159, 0.0 ] } },
{ "type": "Feature", "properties": { "Name": "Coop Dulliken", "Description": "" }, "geometry": { "type": "Point", "coordinates": [ 7.94571, 47.35372, 0.0 ] } },
{ "type": "Feature", "properties": { "Name": "Coop Chateau-d'Oex", "Description": "" }, "geometry": { "type": "Point", "coordinates": [ 7.13356, 46.47446, 0.0 ] } },
{ "type": "Feature", "properties": { "Name": "Coop Geneve Champel", "Description": "" }, "geometry": { "type": "Point", "coordinates": [ 6.15221, 46.19477, 0.0 ] } },
{ "type": "Feature", "properties": { "Name": "Coop Geneve Florissant", "Description": "" }, "geometry": { "type": "Point", "coordinates": [ 6.16125, 46.19324, 0.0 ] } },
{ "type": "Feature", "properties": { "Name": "Coop Lausanne Grancy", "Description": "" }, "geometry": { "type": "Point", "coordinates": [ 6.6316, 46.51531, 0.0 ] } },
{ "type": "Feature", "properties": { "Name": "Coop Aigle", "Description": "" }, "geometry": { "type": "Point", "coordinates": [ 6.96517, 46.31897, 0.0 ] } },
{ "type": "Feature", "properties": { "Name": "Coop Saint-Prex", "Description": "" }, "geometry": { "type": "Point", "coordinates": [ 6.45693, 46.48233, 0.0 ] } },
{ "type": "Feature", "properties": { "Name": "Coop Kuessnacht am Rigi", "Description": "" }, "geometry": { "type": "Point", "coordinates": [ 8.4396, 47.08237, 0.0 ] } },
{ "type": "Feature", "properties": { "Name": "Coop Altdorf", "Description": "" }, "geometry": { "type": "Point", "coordinates": [ 8.64572, 46.88093, 0.0 ] } },
{ "type": "Feature", "properties": { "Name": "Coop Oberriet", "Description": "" }, "geometry": { "type": "Point", "coordinates": [ 9.56891, 47.32351, 0.0 ] } },
{ "type": "Feature", "properties": { "Name": "Coop Romanshorn", "Description": "" }, "geometry": { "type": "Point", "coordinates": [ 9.37723, 47.56355, 0.0 ] } },
{ "type": "Feature", "properties": { "Name": "Coop Wattwil", "Description": "" }, "geometry": { "type": "Point", "coordinates": [ 9.0863, 47.3032, 0.0 ] } },
{ "type": "Feature", "properties": { "Name": "Coop Amriswil", "Description": "" }, "geometry": { "type": "Point", "coordinates": [ 9.30197, 47.54739, 0.0 ] } },
{ "type": "Feature", "properties": { "Name": "Coop Thusis", "Description": "" }, "geometry": { "type": "Point", "coordinates": [ 9.43972, 46.69724, 0.0 ] } },
{ "type": "Feature", "properties": { "Name": "Coop Graenichen", "Description": "" }, "geometry": { "type": "Point", "coordinates": [ 8.09897, 47.35867, 0.0 ] } },
{ "type": "Feature", "properties": { "Name": "Coop Windisch", "Description": "" }, "geometry": { "type": "Point", "coordinates": [ 8.21325, 47.47444, 0.0 ] } },
{ "type": "Feature", "properties": { "Name": "Coop Suhr", "Description": "" }, "geometry": { "type": "Point", "coordinates": [ 8.0773, 47.37429, 0.0 ] } },
{ "type": "Feature", "properties": { "Name": "Coop Seon", "Description": "" }, "geometry": { "type": "Point", "coordinates": [ 8.16171, 47.34761, 0.0 ] } },
{ "type": "Feature", "properties": { "Name": "Coop Niederrohrdorf", "Description": "" }, "geometry": { "type": "Point", "coordinates": [ 8.30507, 47.42385, 0.0 ] } },
{ "type": "Feature", "properties": { "Name": "Coop Fahrwangen", "Description": "" }, "geometry": { "type": "Point", "coordinates": [ 8.24206, 47.29532, 0.0 ] } },
{ "type": "Feature", "properties": { "Name": "Coop Kuettigen", "Description": "" }, "geometry": { "type": "Point", "coordinates": [ 8.04799, 47.4151, 0.0 ] } },
{ "type": "Feature", "properties": { "Name": "Coop Ehrendingen", "Description": "" }, "geometry": { "type": "Point", "coordinates": [ 8.34087, 47.49435, 0.0 ] } },
{ "type": "Feature", "properties": { "Name": "Coop Fislisbach", "Description": "" }, "geometry": { "type": "Point", "coordinates": [ 8.29059, 47.43648, 0.0 ] } },
{ "type": "Feature", "properties": { "Name": "Coop Lausen", "Description": "" }, "geometry": { "type": "Point", "coordinates": [ 7.75869, 47.47294, 0.0 ] } },
{ "type": "Feature", "properties": { "Name": "Coop Basel Hardstrasse", "Description": "" }, "geometry": { "type": "Point", "coordinates": [ 7.60671, 47.54959, 0.0 ] } },
{ "type": "Feature", "properties": { "Name": "Coop Allschwil Dorf", "Description": "" }, "geometry": { "type": "Point", "coordinates": [ 7.53819, 47.55142, 0.0 ] } },
{ "type": "Feature", "properties": { "Name": "Coop Reinach Surbaum", "Description": "" }, "geometry": { "type": "Point", "coordinates": [ 7.59983, 47.50613, 0.0 ] } },
{ "type": "Feature", "properties": { "Name": "Coop Allschwil Lindenplatz", "Description": "" }, "geometry": { "type": "Point", "coordinates": [ 7.55987, 47.55852, 0.0 ] } },
{ "type": "Feature", "properties": { "Name": "Coop Basel Allschwilerstrasse", "Description": "" }, "geometry": { "type": "Point", "coordinates": [ 7.57184, 47.55639, 0.0 ] } },
{ "type": "Feature", "properties": { "Name": "Coop Grellingen", "Description": "" }, "geometry": { "type": "Point", "coordinates": [ 7.5894, 47.44173, 0.0 ] } },
{ "type": "Feature", "properties": { "Name": "Coop Basel Bahnhof SBB", "Description": "" }, "geometry": { "type": "Point", "coordinates": [ 7.59057, 47.54788, 0.0 ] } },
{ "type": "Feature", "properties": { "Name": "Coop Bellinzona Nord", "Description": "" }, "geometry": { "type": "Point", "coordinates": [ 9.03082, 46.20224, 0.0 ] } },
{ "type": "Feature", "properties": { "Name": "Coop Roveredo GR", "Description": "" }, "geometry": { "type": "Point", "coordinates": [ 9.13061, 46.23846, 0.0 ] } },
{ "type": "Feature", "properties": { "Name": "Coop Lugano Breganzona", "Description": "" }, "geometry": { "type": "Point", "coordinates": [ 8.93302, 46.01282, 0.0 ] } },
{ "type": "Feature", "properties": { "Name": "Coop Tesserete", "Description": "" }, "geometry": { "type": "Point", "coordinates": [ 8.96821, 46.06853, 0.0 ] } },
{ "type": "Feature", "properties": { "Name": "Coop Stabio", "Description": "" }, "geometry": { "type": "Point", "coordinates": [ 8.93985, 45.85315, 0.0 ] } },
{ "type": "Feature", "properties": { "Name": "Coop Caslano", "Description": "" }, "geometry": { "type": "Point", "coordinates": [ 8.8797, 45.97369, 0.0 ] } },
{ "type": "Feature", "properties": { "Name": "Coop Locarno Solduno", "Description": "" }, "geometry": { "type": "Point", "coordinates": [ 8.78104, 46.16929, 0.0 ] } },
{ "type": "Feature", "properties": { "Name": "Coop Melide", "Description": "" }, "geometry": { "type": "Point", "coordinates": [ 8.9482, 45.95518, 0.0 ] } },
{ "type": "Feature", "properties": { "Name": "Coop Bellinzona PY", "Description": "" }, "geometry": { "type": "Point", "coordinates": [ 9.01239, 46.18376, 0.0 ] } },
{ "type": "Feature", "properties": { "Name": "Coop Lengnau", "Description": "" }, "geometry": { "type": "Point", "coordinates": [ 7.36646, 47.18192, 0.0 ] } },
{ "type": "Feature", "properties": { "Name": "Coop Ins", "Description": "" }, "geometry": { "type": "Point", "coordinates": [ 7.10353, 47.00513, 0.0 ] } },
{ "type": "Feature", "properties": { "Name": "Coop Bern Eigerplatz", "Description": "" }, "geometry": { "type": "Point", "coordinates": [ 7.43148, 46.9411, 0.0 ] } },
{ "type": "Feature", "properties": { "Name": "Coop Tafers", "Description": "" }, "geometry": { "type": "Point", "coordinates": [ 7.21661, 46.81573, 0.0 ] } },
{ "type": "Feature", "properties": { "Name": "Coop Grosshoechstetten", "Description": "" }, "geometry": { "type": "Point", "coordinates": [ 7.63756, 46.90687, 0.0 ] } },
{ "type": "Feature", "properties": { "Name": "Coop Busswil", "Description": "" }, "geometry": { "type": "Point", "coordinates": [ 7.32094, 47.09953, 0.0 ] } },
{ "type": "Feature", "properties": { "Name": "Coop Ostermundigen Ruetiweg", "Description": "" }, "geometry": { "type": "Point", "coordinates": [ 7.50035, 46.95929, 0.0 ] } },
{ "type": "Feature", "properties": { "Name": "Coop Bern Schlossstrasse", "Description": "" }, "geometry": { "type": "Point", "coordinates": [ 7.41191, 46.94367, 0.0 ] } },
{ "type": "Feature", "properties": { "Name": "Coop Schoenbuehl Dorf", "Description": "" }, "geometry": { "type": "Point", "coordinates": [ 7.49805, 47.02049, 0.0 ] } },
{ "type": "Feature", "properties": { "Name": "Coop Schuepfen", "Description": "" }, "geometry": { "type": "Point", "coordinates": [ 7.37898, 47.04103, 0.0 ] } },
{ "type": "Feature", "properties": { "Name": "Coop Signau", "Description": "" }, "geometry": { "type": "Point", "coordinates": [ 7.72871, 46.92256, 0.0 ] } },
{ "type": "Feature", "properties": { "Name": "Coop Bern Sulgenbach", "Description": "" }, "geometry": { "type": "Point", "coordinates": [ 7.43667, 46.93959, 0.0 ] } },
{ "type": "Feature", "properties": { "Name": "Coop Fraubrunnen", "Description": "" }, "geometry": { "type": "Point", "coordinates": [ 7.52366, 47.08522, 0.0 ] } },
{ "type": "Feature", "properties": { "Name": "Coop Luetzelflueh", "Description": "" }, "geometry": { "type": "Point", "coordinates": [ 7.68442, 47.00532, 0.0 ] } },
{ "type": "Feature", "properties": { "Name": "Coop Oberburg", "Description": "" }, "geometry": { "type": "Point", "coordinates": [ 7.63106, 47.03709, 0.0 ] } },
{ "type": "Feature", "properties": { "Name": "Coop Bevilard-Malleray", "Description": "" }, "geometry": { "type": "Point", "coordinates": [ 7.2781, 47.23789, 0.0 ] } },
{ "type": "Feature", "properties": { "Name": "Coop Neuchatel Vauseyon", "Description": "" }, "geometry": { "type": "Point", "coordinates": [ 6.90987, 46.98821, 0.0 ] } },
{ "type": "Feature", "properties": { "Name": "Coop Saint-Blaise", "Description": "" }, "geometry": { "type": "Point", "coordinates": [ 6.98476, 47.01347, 0.0 ] } },
{ "type": "Feature", "properties": { "Name": "Coop Fleurier", "Description": "" }, "geometry": { "type": "Point", "coordinates": [ 6.58278, 46.90234, 0.0 ] } },
{ "type": "Feature", "properties": { "Name": "Coop Bevaix", "Description": "" }, "geometry": { "type": "Point", "coordinates": [ 6.81228, 46.92896, 0.0 ] } },
{ "type": "Feature", "properties": { "Name": "Coop La Neuveville", "Description": "" }, "geometry": { "type": "Point", "coordinates": [ 7.09662, 47.06383, 0.0 ] } },
{ "type": "Feature", "properties": { "Name": "Coop Thun Schoenau", "Description": "" }, "geometry": { "type": "Point", "coordinates": [ 7.61512, 46.75348, 0.0 ] } },
{ "type": "Feature", "properties": { "Name": "Coop Heimberg Aarestrasse", "Description": "" }, "geometry": { "type": "Point", "coordinates": [ 7.60888, 46.78343, 0.0 ] } },
{ "type": "Feature", "properties": { "Name": "Coop Wimmis", "Description": "" }, "geometry": { "type": "Point", "coordinates": [ 7.63804, 46.67538, 0.0 ] } },
{ "type": "Feature", "properties": { "Name": "Coop Matten", "Description": "" }, "geometry": { "type": "Point", "coordinates": [ 7.86623, 46.68064, 0.0 ] } },
{ "type": "Feature", "properties": { "Name": "Coop Grindelwald", "Description": "" }, "geometry": { "type": "Point", "coordinates": [ 8.03583, 46.62428, 0.0 ] } },
{ "type": "Feature", "properties": { "Name": "Coop Zuerich Suteracher", "Description": "" }, "geometry": { "type": "Point", "coordinates": [ 8.47199, 47.38976, 0.0 ] } },
{ "type": "Feature", "properties": { "Name": "Coop Zuerich Dorflinde", "Description": "" }, "geometry": { "type": "Point", "coordinates": [ 8.55017, 47.40726, 0.0 ] } },
{ "type": "Feature", "properties": { "Name": "Coop Glarus", "Description": "" }, "geometry": { "type": "Point", "coordinates": [ 9.0696, 47.04017, 0.0 ] } },
{ "type": "Feature", "properties": { "Name": "Coop Maennedorf", "Description": "" }, "geometry": { "type": "Point", "coordinates": [ 8.68972, 47.25544, 0.0 ] } },
{ "type": "Feature", "properties": { "Name": "Coop Glattfelden", "Description": "" }, "geometry": { "type": "Point", "coordinates": [ 8.50276, 47.55686, 0.0 ] } },
{ "type": "Feature", "properties": { "Name": "Coop Kloten Center", "Description": "" }, "geometry": { "type": "Point", "coordinates": [ 8.58096, 47.45316, 0.0 ] } },
{ "type": "Feature", "properties": { "Name": "Coop Zumikon", "Description": "" }, "geometry": { "type": "Point", "coordinates": [ 8.62339, 47.33271, 0.0 ] } },
{ "type": "Feature", "properties": { "Name": "Coop Dietlikon Bahnhofstrasse", "Description": "" }, "geometry": { "type": "Point", "coordinates": [ 8.61866, 47.42193, 0.0 ] } },
{ "type": "Feature", "properties": { "Name": "Coop Herrliberg", "Description": "" }, "geometry": { "type": "Point", "coordinates": [ 8.61284, 47.28624, 0.0 ] } },
{ "type": "Feature", "properties": { "Name": "Coop Zuerich Schweighofstrasse", "Description": "" }, "geometry": { "type": "Point", "coordinates": [ 8.50673, 47.36099, 0.0 ] } },
{ "type": "Feature", "properties": { "Name": "Coop Uetikon", "Description": "" }, "geometry": { "type": "Point", "coordinates": [ 8.67714, 47.26262, 0.0 ] } },
{ "type": "Feature", "properties": { "Name": "Coop Adliswil", "Description": "" }, "geometry": { "type": "Point", "coordinates": [ 8.52532, 47.31303, 0.0 ] } },
{ "type": "Feature", "properties": { "Name": "Coop Zuerich Wipkingerbruecke", "Description": "" }, "geometry": { "type": "Point", "coordinates": [ 8.52465, 47.39262, 0.0 ] } },
{ "type": "Feature", "properties": { "Name": "Coop Niederglatt", "Description": "" }, "geometry": { "type": "Point", "coordinates": [ 8.5039, 47.49123, 0.0 ] } },
{ "type": "Feature", "properties": { "Name": "Coop Schwanden", "Description": "" }, "geometry": { "type": "Point", "coordinates": [ 9.07539, 46.99491, 0.0 ] } },
{ "type": "Feature", "properties": { "Name": "Coop Richterswil Poststrasse", "Description": "" }, "geometry": { "type": "Point", "coordinates": [ 8.70567, 47.20847, 0.0 ] } },
{ "type": "Feature", "properties": { "Name": "Coop Rueschlikon", "Description": "" }, "geometry": { "type": "Point", "coordinates": [ 8.55417, 47.30586, 0.0 ] } },
{ "type": "Feature", "properties": { "Name": "Coop Zuerich Tiefenbrunnen", "Description": "" }, "geometry": { "type": "Point", "coordinates": [ 8.55908, 47.35337, 0.0 ] } },
{ "type": "Feature", "properties": { "Name": "Coop Zuerich Milchbuck", "Description": "" }, "geometry": { "type": "Point", "coordinates": [ 8.54046, 47.39572, 0.0 ] } },
{ "type": "Feature", "properties": { "Name": "Coop Geroldswil", "Description": "" }, "geometry": { "type": "Point", "coordinates": [ 8.41048, 47.42256, 0.0 ] } },
{ "type": "Feature", "properties": { "Name": "Coop Obfelden", "Description": "" }, "geometry": { "type": "Point", "coordinates": [ 8.42413, 47.26685, 0.0 ] } },
{ "type": "Feature", "properties": { "Name": "Coop Wald ZH", "Description": "" }, "geometry": { "type": "Point", "coordinates": [ 8.9146, 47.27364, 0.0 ] } },
{ "type": "Feature", "properties": { "Name": "Coop Einsiedeln", "Description": "" }, "geometry": { "type": "Point", "coordinates": [ 8.7457, 47.12688, 0.0 ] } },
{ "type": "Feature", "properties": { "Name": "Coop Zuerich Baerengasse", "Description": "" }, "geometry": { "type": "Point", "coordinates": [ 8.5371, 47.37003, 0.0 ] } },
{ "type": "Feature", "properties": { "Name": "Coop Oberengstringen", "Description": "" }, "geometry": { "type": "Point", "coordinates": [ 8.45779, 47.4106, 0.0 ] } },
{ "type": "Feature", "properties": { "Name": "Coop Oberrieden", "Description": "" }, "geometry": { "type": "Point", "coordinates": [ 8.57539, 47.27823, 0.0 ] } },
{ "type": "Feature", "properties": { "Name": "Coop Zuerich Leimbach", "Description": "" }, "geometry": { "type": "Point", "coordinates": [ 8.51425, 47.32626, 0.0 ] } },
{ "type": "Feature", "properties": { "Name": "Coop Baeretswil", "Description": "" }, "geometry": { "type": "Point", "coordinates": [ 8.85516, 47.3352, 0.0 ] } },
{ "type": "Feature", "properties": { "Name": "Coop Niederurnen", "Description": "" }, "geometry": { "type": "Point", "coordinates": [ 9.05532, 47.12719, 0.0 ] } },
{ "type": "Feature", "properties": { "Name": "Coop Jona Center", "Description": "" }, "geometry": { "type": "Point", "coordinates": [ 8.84886, 47.22978, 0.0 ] } },
{ "type": "Feature", "properties": { "Name": "Coop Luterbach", "Description": "" }, "geometry": { "type": "Point", "coordinates": [ 7.5869, 47.21599, 0.0 ] } },
{ "type": "Feature", "properties": { "Name": "Coop Erlinsbach", "Description": "" }, "geometry": { "type": "Point", "coordinates": [ 8.00691, 47.39879, 0.0 ] } },
{ "type": "Feature", "properties": { "Name": "Coop Selzach", "Description": "" }, "geometry": { "type": "Point", "coordinates": [ 7.4563, 47.20439, 0.0 ] } },
{ "type": "Feature", "properties": { "Name": "Coop Strengelbach", "Description": "" }, "geometry": { "type": "Point", "coordinates": [ 7.92702, 47.27964, 0.0 ] } },
{ "type": "Feature", "properties": { "Name": "Coop Subingen", "Description": "" }, "geometry": { "type": "Point", "coordinates": [ 7.61262, 47.1965, 0.0 ] } },
{ "type": "Feature", "properties": { "Name": "Coop Brittnau", "Description": "" }, "geometry": { "type": "Point", "coordinates": [ 7.9467, 47.26039, 0.0 ] } },
{ "type": "Feature", "properties": { "Name": "Coop Langenthal Baeregg", "Description": "" }, "geometry": { "type": "Point", "coordinates": [ 7.7815, 47.2208, 0.0 ] } },
{ "type": "Feature", "properties": { "Name": "Coop Oensingen", "Description": "" }, "geometry": { "type": "Point", "coordinates": [ 7.71886, 47.28963, 0.0 ] } },
{ "type": "Feature", "properties": { "Name": "Coop Wangen an der Aare", "Description": "" }, "geometry": { "type": "Point", "coordinates": [ 7.65616, 47.23435, 0.0 ] } },
{ "type": "Feature", "properties": { "Name": "Coop Muemliswil", "Description": "" }, "geometry": { "type": "Point", "coordinates": [ 7.70361, 47.34209, 0.0 ] } },
{ "type": "Feature", "properties": { "Name": "Coop Crans-Sur-Sierre", "Description": "" }, "geometry": { "type": "Point", "coordinates": [ 7.46784, 46.30764, 0.0 ] } },
{ "type": "Feature", "properties": { "Name": "Coop Ovronnaz", "Description": "" }, "geometry": { "type": "Point", "coordinates": [ 7.17008, 46.20072, 0.0 ] } },
{ "type": "Feature", "properties": { "Name": "Coop Verbier", "Description": "" }, "geometry": { "type": "Point", "coordinates": [ 7.22503, 46.09747, 0.0 ] } },
{ "type": "Feature", "properties": { "Name": "Coop Saxon", "Description": "" }, "geometry": { "type": "Point", "coordinates": [ 7.17514, 46.14936, 0.0 ] } },
{ "type": "Feature", "properties": { "Name": "Coop Saviese", "Description": "" }, "geometry": { "type": "Point", "coordinates": [ 7.34896, 46.25021, 0.0 ] } },
{ "type": "Feature", "properties": { "Name": "Coop Charmey", "Description": "" }, "geometry": { "type": "Point", "coordinates": [ 7.16065, 46.61933, 0.0 ] } },
{ "type": "Feature", "properties": { "Name": "Coop Granges-Marnand", "Description": "" }, "geometry": { "type": "Point", "coordinates": [ 6.89175, 46.76178, 0.0 ] } },
{ "type": "Feature", "properties": { "Name": "Coop Yvonand", "Description": "" }, "geometry": { "type": "Point", "coordinates": [ 6.74544, 46.79993, 0.0 ] } },
{ "type": "Feature", "properties": { "Name": "Coop Geneve Daubin", "Description": "" }, "geometry": { "type": "Point", "coordinates": [ 6.12976, 46.20694, 0.0 ] } },
{ "type": "Feature", "properties": { "Name": "Coop Geneve Vieusseux", "Description": "" }, "geometry": { "type": "Point", "coordinates": [ 6.12356, 46.21324, 0.0 ] } },
{ "type": "Feature", "properties": { "Name": "Coop Geneve Montchoisy", "Description": "" }, "geometry": { "type": "Point", "coordinates": [ 6.16304, 46.20415, 0.0 ] } },
{ "type": "Feature", "properties": { "Name": "Coop Geneve Cirque", "Description": "" }, "geometry": { "type": "Point", "coordinates": [ 6.13905, 46.20125, 0.0 ] } },
{ "type": "Feature", "properties": { "Name": "Coop Grand-Lancy Palettes", "Description": "" }, "geometry": { "type": "Point", "coordinates": [ 6.1206, 46.17569, 0.0 ] } },
{ "type": "Feature", "properties": { "Name": "Coop Bernex", "Description": "" }, "geometry": { "type": "Point", "coordinates": [ 6.07094, 46.17417, 0.0 ] } },
{ "type": "Feature", "properties": { "Name": "Coop Bex", "Description": "" }, "geometry": { "type": "Point", "coordinates": [ 7.01363, 46.25039, 0.0 ] } },
{ "type": "Feature", "properties": { "Name": "Coop Villars-sur-Ollon", "Description": "" }, "geometry": { "type": "Point", "coordinates": [ 7.05133, 46.30019, 0.0 ] } },
{ "type": "Feature", "properties": { "Name": "Coop Vouvry", "Description": "" }, "geometry": { "type": "Point", "coordinates": [ 6.89043, 46.33369, 0.0 ] } },
{ "type": "Feature", "properties": { "Name": "Coop Lausanne La Harpe", "Description": "" }, "geometry": { "type": "Point", "coordinates": [ 6.62617, 46.51032, 0.0 ] } },
{ "type": "Feature", "properties": { "Name": "Coop Les Diablerets", "Description": "" }, "geometry": { "type": "Point", "coordinates": [ 7.15298, 46.35246, 0.0 ] } },
{ "type": "Feature", "properties": { "Name": "Coop Saint-Maurice", "Description": "" }, "geometry": { "type": "Point", "coordinates": [ 7.00634, 46.21773, 0.0 ] } },
{ "type": "Feature", "properties": { "Name": "Coop Lausanne Entrebois", "Description": "" }, "geometry": { "type": "Point", "coordinates": [ 6.63171, 46.53767, 0.0 ] } },
{ "type": "Feature", "properties": { "Name": "Coop Chexbres", "Description": "" }, "geometry": { "type": "Point", "coordinates": [ 6.77472, 46.48243, 0.0 ] } },
{ "type": "Feature", "properties": { "Name": "Coop Cheseaux", "Description": "" }, "geometry": { "type": "Point", "coordinates": [ 6.60466, 46.58639, 0.0 ] } },
{ "type": "Feature", "properties": { "Name": "Coop Savigny", "Description": "" }, "geometry": { "type": "Point", "coordinates": [ 6.7311, 46.53812, 0.0 ] } },
{ "type": "Feature", "properties": { "Name": "Coop Renens Florissant", "Description": "" }, "geometry": { "type": "Point", "coordinates": [ 6.59827, 46.5333, 0.0 ] } },
{ "type": "Feature", "properties": { "Name": "Coop Sainte-Croix", "Description": "" }, "geometry": { "type": "Point", "coordinates": [ 6.50149, 46.82294, 0.0 ] } },
{ "type": "Feature", "properties": { "Name": "Coop Vallorbe", "Description": "" }, "geometry": { "type": "Point", "coordinates": [ 6.37815, 46.71193, 0.0 ] } },
{ "type": "Feature", "properties": { "Name": "Coop La Sarraz", "Description": "" }, "geometry": { "type": "Point", "coordinates": [ 6.51145, 46.65856, 0.0 ] } },
{ "type": "Feature", "properties": { "Name": "Coop Penthalaz Village", "Description": "" }, "geometry": { "type": "Point", "coordinates": [ 6.52665, 46.60869, 0.0 ] } },
{ "type": "Feature", "properties": { "Name": "Coop Rolle", "Description": "" }, "geometry": { "type": "Point", "coordinates": [ 6.33865, 46.45787, 0.0 ] } },
{ "type": "Feature", "properties": { "Name": "Coop Blonay", "Description": "" }, "geometry": { "type": "Point", "coordinates": [ 6.89432, 46.46659, 0.0 ] } },
{ "type": "Feature", "properties": { "Name": "Coop Luzern Hubelmatt", "Description": "" }, "geometry": { "type": "Point", "coordinates": [ 8.30854, 47.03731, 0.0 ] } },
{ "type": "Feature", "properties": { "Name": "Coop Steinhausen", "Description": "" }, "geometry": { "type": "Point", "coordinates": [ 8.48486, 47.19719, 0.0 ] } },
{ "type": "Feature", "properties": { "Name": "Coop Horw", "Description": "" }, "geometry": { "type": "Point", "coordinates": [ 8.31101, 47.01946, 0.0 ] } },
{ "type": "Feature", "properties": { "Name": "Coop Meggen", "Description": "" }, "geometry": { "type": "Point", "coordinates": [ 8.37396, 47.04678, 0.0 ] } },
{ "type": "Feature", "properties": { "Name": "Coop Oberaegeri", "Description": "" }, "geometry": { "type": "Point", "coordinates": [ 8.61247, 47.13499, 0.0 ] } },
{ "type": "Feature", "properties": { "Name": "Coop Huenenberg", "Description": "" }, "geometry": { "type": "Point", "coordinates": [ 8.4263, 47.17547, 0.0 ] } },
{ "type": "Feature", "properties": { "Name": "Coop Alpnach", "Description": "" }, "geometry": { "type": "Point", "coordinates": [ 8.26972, 46.9377, 0.0 ] } },
{ "type": "Feature", "properties": { "Name": "Coop Stansstad", "Description": "" }, "geometry": { "type": "Point", "coordinates": [ 8.34183, 46.97497, 0.0 ] } },
{ "type": "Feature", "properties": { "Name": "Coop Luzern Schlossberg", "Description": "" }, "geometry": { "type": "Point", "coordinates": [ 8.30857, 47.06118, 0.0 ] } },
{ "type": "Feature", "properties": { "Name": "Coop Hergiswil", "Description": "" }, "geometry": { "type": "Point", "coordinates": [ 8.31148, 46.98595, 0.0 ] } },
{ "type": "Feature", "properties": { "Name": "Coop Ruswil", "Description": "" }, "geometry": { "type": "Point", "coordinates": [ 8.12699, 47.08262, 0.0 ] } },
{ "type": "Feature", "properties": { "Name": "Coop Hitzkirch", "Description": "" }, "geometry": { "type": "Point", "coordinates": [ 8.26235, 47.22448, 0.0 ] } },
{ "type": "Feature", "properties": { "Name": "Coop Schoetz", "Description": "" }, "geometry": { "type": "Point", "coordinates": [ 7.99264, 47.16899, 0.0 ] } },
{ "type": "Feature", "properties": { "Name": "Coop Andermatt", "Description": "" }, "geometry": { "type": "Point", "coordinates": [ 8.5962, 46.63439, 0.0 ] } },
{ "type": "Feature", "properties": { "Name": "Coop Winterthur Seen", "Description": "" }, "geometry": { "type": "Point", "coordinates": [ 8.75881, 47.48459, 0.0 ] } },
{ "type": "Feature", "properties": { "Name": "Coop Winterthur Feldstrasse", "Description": "" }, "geometry": { "type": "Point", "coordinates": [ 8.71788, 47.50847, 0.0 ] } },
{ "type": "Feature", "properties": { "Name": "Coop Schaffhausen Riet", "Description": "" }, "geometry": { "type": "Point", "coordinates": [ 8.61569, 47.70393, 0.0 ] } },
{ "type": "Feature", "properties": { "Name": "Coop Neuhausen Schuetzengut", "Description": "" }, "geometry": { "type": "Point", "coordinates": [ 8.60648, 47.68014, 0.0 ] } },
{ "type": "Feature", "properties": { "Name": "Coop Wiesendangen", "Description": "" }, "geometry": { "type": "Point", "coordinates": [ 8.7877, 47.523, 0.0 ] } },
{ "type": "Feature", "properties": { "Name": "Coop Frauenfeld Fallengatter", "Description": "" }, "geometry": { "type": "Point", "coordinates": [ 8.88729, 47.56123, 0.0 ] } },
{ "type": "Feature", "properties": { "Name": "Coop Seuzach", "Description": "" }, "geometry": { "type": "Point", "coordinates": [ 8.73409, 47.537, 0.0 ] } },
{ "type": "Feature", "properties": { "Name": "Coop Turbenthal", "Description": "" }, "geometry": { "type": "Point", "coordinates": [ 8.84411, 47.44009, 0.0 ] } },
{ "type": "Feature", "properties": { "Name": "Coop Muellheim", "Description": "" }, "geometry": { "type": "Point", "coordinates": [ 9.00054, 47.60175, 0.0 ] } },
{ "type": "Feature", "properties": { "Name": "Coop Sulgen", "Description": "" }, "geometry": { "type": "Point", "coordinates": [ 9.18358, 47.54077, 0.0 ] } },
{ "type": "Feature", "properties": { "Name": "Coop St. Gallen Neugasse", "Description": "" }, "geometry": { "type": "Point", "coordinates": [ 9.37435, 47.42436, 0.0 ] } },
{ "type": "Feature", "properties": { "Name": "Coop Truebbach", "Description": "" }, "geometry": { "type": "Point", "coordinates": [ 9.49659, 47.09237, 0.0 ] } },
{ "type": "Feature", "properties": { "Name": "Coop Heiden", "Description": "" }, "geometry": { "type": "Point", "coordinates": [ 9.53214, 47.44378, 0.0 ] } },
{ "type": "Feature", "properties": { "Name": "Coop Arosa Dorf", "Description": "" }, "geometry": { "type": "Point", "coordinates": [ 9.67737, 46.7787, 0.0 ] } },
{ "type": "Feature", "properties": { "Name": "Coop Poschiavo", "Description": "" }, "geometry": { "type": "Point", "coordinates": [ 10.05479, 46.32371, 0.0 ] } },
{ "type": "Feature", "properties": { "Name": "Coop Disentis", "Description": "" }, "geometry": { "type": "Point", "coordinates": [ 8.84946, 46.70402, 0.0 ] } },
{ "type": "Feature", "properties": { "Name": "Coop Zuoz", "Description": "" }, "geometry": { "type": "Point", "coordinates": [ 9.95888, 46.60205, 0.0 ] } },
{ "type": "Feature", "properties": { "Name": "Coop Zernez", "Description": "" }, "geometry": { "type": "Point", "coordinates": [ 10.09404, 46.70042, 0.0 ] } },
{ "type": "Feature", "properties": { "Name": "Coop Walenstadt", "Description": "" }, "geometry": { "type": "Point", "coordinates": [ 9.31455, 47.12344, 0.0 ] } },
{ "type": "Feature", "properties": { "Name": "Coop Zizers", "Description": "" }, "geometry": { "type": "Point", "coordinates": [ 9.56569, 46.93686, 0.0 ] } },
{ "type": "Feature", "properties": { "Name": "Coop Kueblis", "Description": "" }, "geometry": { "type": "Point", "coordinates": [ 9.77759, 46.91411, 0.0 ] } },
{ "type": "Feature", "properties": { "Name": "Coop Sedrun", "Description": "" }, "geometry": { "type": "Point", "coordinates": [ 8.77109, 46.67886, 0.0 ] } },
{ "type": "Feature", "properties": { "Name": "Coop Bonaduz", "Description": "" }, "geometry": { "type": "Point", "coordinates": [ 9.40127, 46.81198, 0.0 ] } },
{ "type": "Feature", "properties": { "Name": "Coop Unterkulm", "Description": "" }, "geometry": { "type": "Point", "coordinates": [ 8.11436, 47.31193, 0.0 ] } },
{ "type": "Feature", "properties": { "Name": "Coop Schoeftland", "Description": "" }, "geometry": { "type": "Point", "coordinates": [ 8.05113, 47.30858, 0.0 ] } },
{ "type": "Feature", "properties": { "Name": "Coop Buchs AG", "Description": "" }, "geometry": { "type": "Point", "coordinates": [ 8.07024, 47.38972, 0.0 ] } },
{ "type": "Feature", "properties": { "Name": "Coop Dottikon", "Description": "" }, "geometry": { "type": "Point", "coordinates": [ 8.23903, 47.38165, 0.0 ] } },
{ "type": "Feature", "properties": { "Name": "Coop Untersiggenthal", "Description": "" }, "geometry": { "type": "Point", "coordinates": [ 8.25511, 47.50197, 0.0 ] } },
{ "type": "Feature", "properties": { "Name": "Coop Flueh", "Description": "" }, "geometry": { "type": "Point", "coordinates": [ 7.5004, 47.48923, 0.0 ] } },
{ "type": "Feature", "properties": { "Name": "Coop Breitenbach", "Description": "" }, "geometry": { "type": "Point", "coordinates": [ 7.54296, 47.40709, 0.0 ] } },
{ "type": "Feature", "properties": { "Name": "Coop Reinach BL", "Description": "" }, "geometry": { "type": "Point", "coordinates": [ 7.59333, 47.49376, 0.0 ] } },
{ "type": "Feature", "properties": { "Name": "Coop Basel Neuweilerplatz", "Description": "" }, "geometry": { "type": "Point", "coordinates": [ 7.56512, 47.54655, 0.0 ] } },
{ "type": "Feature", "properties": { "Name": "Coop Ettingen", "Description": "" }, "geometry": { "type": "Point", "coordinates": [ 7.54574, 47.48246, 0.0 ] } },
{ "type": "Feature", "properties": { "Name": "Coop Magden", "Description": "" }, "geometry": { "type": "Point", "coordinates": [ 7.81555, 47.52598, 0.0 ] } },
{ "type": "Feature", "properties": { "Name": "Coop Agno", "Description": "" }, "geometry": { "type": "Point", "coordinates": [ 8.90262, 45.99733, 0.0 ] } },
{ "type": "Feature", "properties": { "Name": "Coop Faido", "Description": "" }, "geometry": { "type": "Point", "coordinates": [ 8.79854, 46.47783, 0.0 ] } },
{ "type": "Feature", "properties": { "Name": "Coop Ascona", "Description": "" }, "geometry": { "type": "Point", "coordinates": [ 8.77147, 46.15565, 0.0 ] } },
{ "type": "Feature", "properties": { "Name": "Coop Lugano Pregassona", "Description": "" }, "geometry": { "type": "Point", "coordinates": [ 8.96942, 46.01996, 0.0 ] } },
{ "type": "Feature", "properties": { "Name": "Coop Giubiasco", "Description": "" }, "geometry": { "type": "Point", "coordinates": [ 9.01036, 46.17376, 0.0 ] } },
{ "type": "Feature", "properties": { "Name": "Coop Losone Mezzana", "Description": "" }, "geometry": { "type": "Point", "coordinates": [ 8.76247, 46.16728, 0.0 ] } },
{ "type": "Feature", "properties": { "Name": "Coop Airolo", "Description": "" }, "geometry": { "type": "Point", "coordinates": [ 8.61173, 46.52855, 0.0 ] } },
{ "type": "Feature", "properties": { "Name": "Coop Biglen", "Description": "" }, "geometry": { "type": "Point", "coordinates": [ 7.62826, 46.92476, 0.0 ] } },
{ "type": "Feature", "properties": { "Name": "Coop Duedingen", "Description": "" }, "geometry": { "type": "Point", "coordinates": [ 7.1907, 46.85037, 0.0 ] } },
{ "type": "Feature", "properties": { "Name": "Coop Bern Egghoelzli", "Description": "" }, "geometry": { "type": "Point", "coordinates": [ 7.47645, 46.93774, 0.0 ] } },
{ "type": "Feature", "properties": { "Name": "Coop Flamatt", "Description": "" }, "geometry": { "type": "Point", "coordinates": [ 7.31409, 46.8897, 0.0 ] } },
{ "type": "Feature", "properties": { "Name": "Coop Bettlach", "Description": "" }, "geometry": { "type": "Point", "coordinates": [ 7.42462, 47.20042, 0.0 ] } },
{ "type": "Feature", "properties": { "Name": "Coop Konolfingen", "Description": "" }, "geometry": { "type": "Point", "coordinates": [ 7.62401, 46.88124, 0.0 ] } },
{ "type": "Feature", "properties": { "Name": "Coop Muensingen", "Description": "" }, "geometry": { "type": "Point", "coordinates": [ 7.56338, 46.87504, 0.0 ] } },
{ "type": "Feature", "properties": { "Name": "Coop Bern Spitalgasse", "Description": "" }, "geometry": { "type": "Point", "coordinates": [ 7.44338, 46.94836, 0.0 ] } },
{ "type": "Feature", "properties": { "Name": "Coop Niederwangen", "Description": "" }, "geometry": { "type": "Point", "coordinates": [ 7.37803, 46.92525, 0.0 ] } },
{ "type": "Feature", "properties": { "Name": "Coop Hasle Rueegsau", "Description": "" }, "geometry": { "type": "Point", "coordinates": [ 7.66023, 47.01791, 0.0 ] } },
{ "type": "Feature", "properties": { "Name": "Coop Sumiswald", "Description": "" }, "geometry": { "type": "Point", "coordinates": [ 7.74413, 47.02937, 0.0 ] } },
{ "type": "Feature", "properties": { "Name": "Coop Murten", "Description": "" }, "geometry": { "type": "Point", "coordinates": [ 7.11503, 46.92677, 0.0 ] } },
{ "type": "Feature", "properties": { "Name": "Coop Le Locle", "Description": "" }, "geometry": { "type": "Point", "coordinates": [ 6.74727, 47.05711, 0.0 ] } },
{ "type": "Feature", "properties": { "Name": "Coop Neuchatel La Treille", "Description": "" }, "geometry": { "type": "Point", "coordinates": [ 6.92968, 46.99057, 0.0 ] } },
{ "type": "Feature", "properties": { "Name": "Coop Boudry", "Description": "" }, "geometry": { "type": "Point", "coordinates": [ 6.83763, 46.94988, 0.0 ] } },
{ "type": "Feature", "properties": { "Name": "Coop Tramelan", "Description": "" }, "geometry": { "type": "Point", "coordinates": [ 7.09874, 47.22313, 0.0 ] } },
{ "type": "Feature", "properties": { "Name": "Coop Wattenwil", "Description": "" }, "geometry": { "type": "Point", "coordinates": [ 7.50908, 46.76886, 0.0 ] } },
{ "type": "Feature", "properties": { "Name": "Coop Adelboden", "Description": "" }, "geometry": { "type": "Point", "coordinates": [ 7.56037, 46.4931, 0.0 ] } },
{ "type": "Feature", "properties": { "Name": "Coop Lenk", "Description": "" }, "geometry": { "type": "Point", "coordinates": [ 7.44267, 46.45678, 0.0 ] } },
{ "type": "Feature", "properties": { "Name": "Coop Zuerich Lochergut", "Description": "" }, "geometry": { "type": "Point", "coordinates": [ 8.51706, 47.37582, 0.0 ] } },
{ "type": "Feature", "properties": { "Name": "Coop Zuerich Wehntalerstrasse", "Description": "" }, "geometry": { "type": "Point", "coordinates": [ 8.50559, 47.41887, 0.0 ] } },
{ "type": "Feature", "properties": { "Name": "Coop Glattbrugg", "Description": "" }, "geometry": { "type": "Point", "coordinates": [ 8.56715, 47.43427, 0.0 ] } },
{ "type": "Feature", "properties": { "Name": "Coop Zuerich Stauffacher", "Description": "" }, "geometry": { "type": "Point", "coordinates": [ 8.5304, 47.37345, 0.0 ] } },
{ "type": "Feature", "properties": { "Name": "Coop Bassersdorf", "Description": "" }, "geometry": { "type": "Point", "coordinates": [ 8.62662, 47.44431, 0.0 ] } },
{ "type": "Feature", "properties": { "Name": "Coop Zuerich Witikonerstrasse", "Description": "" }, "geometry": { "type": "Point", "coordinates": [ 8.59493, 47.36016, 0.0 ] } },
{ "type": "Feature", "properties": { "Name": "Coop Zuerich Hofwiesenstrasse", "Description": "" }, "geometry": { "type": "Point", "coordinates": [ 8.54473, 47.41125, 0.0 ] } },
{ "type": "Feature", "properties": { "Name": "Coop Uster Bahnhof", "Description": "" }, "geometry": { "type": "Point", "coordinates": [ 8.7162, 47.35159, 0.0 ] } },
{ "type": "Feature", "properties": { "Name": "Coop Effretikon Effimaert", "Description": "" }, "geometry": { "type": "Point", "coordinates": [ 8.68476, 47.42838, 0.0 ] } },
{ "type": "Feature", "properties": { "Name": "Coop Horgen Waldegg", "Description": "" }, "geometry": { "type": "Point", "coordinates": [ 8.60835, 47.24532, 0.0 ] } },
{ "type": "Feature", "properties": { "Name": "Coop Wangen bei Olten", "Description": "" }, "geometry": { "type": "Point", "coordinates": [ 7.87108, 47.34338, 0.0 ] } },
{ "type": "Feature", "properties": { "Name": "Coop Utzenstorf", "Description": "" }, "geometry": { "type": "Point", "coordinates": [ 7.55692, 47.1316, 0.0 ] } },
{ "type": "Feature", "properties": { "Name": "Coop Koelliken", "Description": "" }, "geometry": { "type": "Point", "coordinates": [ 8.02496, 47.33409, 0.0 ] } },
{ "type": "Feature", "properties": { "Name": "Coop Langendorf", "Description": "" }, "geometry": { "type": "Point", "coordinates": [ 7.5151, 47.22009, 0.0 ] } },
{ "type": "Feature", "properties": { "Name": "Coop Reiden", "Description": "" }, "geometry": { "type": "Point", "coordinates": [ 7.97088, 47.24899, 0.0 ] } },
{ "type": "Feature", "properties": { "Name": "Coop Roggwil", "Description": "" }, "geometry": { "type": "Point", "coordinates": [ 7.82126, 47.24209, 0.0 ] } },
{ "type": "Feature", "properties": { "Name": "Coop Rothrist", "Description": "" }, "geometry": { "type": "Point", "coordinates": [ 7.88851, 47.30598, 0.0 ] } },
{ "type": "Feature", "properties": { "Name": "Coop Anzere", "Description": "" }, "geometry": { "type": "Point", "coordinates": [ 7.39656, 46.29649, 0.0 ] } },
{ "type": "Feature", "properties": { "Name": "Coop Marly", "Description": "" }, "geometry": { "type": "Point", "coordinates": [ 7.15034, 46.78015, 0.0 ] } },
{ "type": "Feature", "properties": { "Name": "Coop Bulle Ville", "Description": "" }, "geometry": { "type": "Point", "coordinates": [ 7.05738, 46.61939, 0.0 ] } },
{ "type": "Feature", "properties": { "Name": "Coop Estavayer-Le-Lac", "Description": "" }, "geometry": { "type": "Point", "coordinates": [ 6.84325, 46.84597, 0.0 ] } },
{ "type": "Feature", "properties": { "Name": "Coop Geneve de Bude", "Description": "" }, "geometry": { "type": "Point", "coordinates": [ 6.13136, 46.22497, 0.0 ] } },
{ "type": "Feature", "properties": { "Name": "Coop Geneve Paquis", "Description": "" }, "geometry": { "type": "Point", "coordinates": [ 6.1494, 46.21199, 0.0 ] } },
{ "type": "Feature", "properties": { "Name": "Coop Versoix Route De Suisse", "Description": "" }, "geometry": { "type": "Point", "coordinates": [ 6.16716, 46.27972, 0.0 ] } },
{ "type": "Feature", "properties": { "Name": "Coop Vernier", "Description": "" }, "geometry": { "type": "Point", "coordinates": [ 6.0833, 46.21456, 0.0 ] } },
{ "type": "Feature", "properties": { "Name": "Coop Prilly Malley", "Description": "" }, "geometry": { "type": "Point", "coordinates": [ 6.60258, 46.52464, 0.0 ] } },
{ "type": "Feature", "properties": { "Name": "Coop Leysin", "Description": "" }, "geometry": { "type": "Point", "coordinates": [ 7.00972, 46.34025, 0.0 ] } },
{ "type": "Feature", "properties": { "Name": "Coop Schwyz", "Description": "" }, "geometry": { "type": "Point", "coordinates": [ 8.65103, 47.01927, 0.0 ] } },
{ "type": "Feature", "properties": { "Name": "Coop Luzern Kasernenplatz", "Description": "" }, "geometry": { "type": "Point", "coordinates": [ 8.29944, 47.05094, 0.0 ] } },
{ "type": "Feature", "properties": { "Name": "Coop Emmenbruecke Sprengi", "Description": "" }, "geometry": { "type": "Point", "coordinates": [ 8.27148, 47.08064, 0.0 ] } },
{ "type": "Feature", "properties": { "Name": "Coop Engelberg", "Description": "" }, "geometry": { "type": "Point", "coordinates": [ 8.4044, 46.82087, 0.0 ] } },
{ "type": "Feature", "properties": { "Name": "Coop Beromuenster", "Description": "" }, "geometry": { "type": "Point", "coordinates": [ 8.1905, 47.20805, 0.0 ] } },
{ "type": "Feature", "properties": { "Name": "Coop Baar Oberdorf", "Description": "" }, "geometry": { "type": "Point", "coordinates": [ 8.52975, 47.19591, 0.0 ] } },
{ "type": "Feature", "properties": { "Name": "Coop Thayngen", "Description": "" }, "geometry": { "type": "Point", "coordinates": [ 8.70604, 47.74631, 0.0 ] } },
{ "type": "Feature", "properties": { "Name": "Coop Beringen", "Description": "" }, "geometry": { "type": "Point", "coordinates": [ 8.57573, 47.6962, 0.0 ] } },
{ "type": "Feature", "properties": { "Name": "Coop Diessenhofen", "Description": "" }, "geometry": { "type": "Point", "coordinates": [ 8.75383, 47.68712, 0.0 ] } },
{ "type": "Feature", "properties": { "Name": "Coop Sirnach", "Description": "" }, "geometry": { "type": "Point", "coordinates": [ 8.99634, 47.46287, 0.0 ] } },
{ "type": "Feature", "properties": { "Name": "Coop Winterthur Toess", "Description": "" }, "geometry": { "type": "Point", "coordinates": [ 8.70617, 47.49081, 0.0 ] } },
{ "type": "Feature", "properties": { "Name": "Coop Taegerwilen", "Description": "" }, "geometry": { "type": "Point", "coordinates": [ 9.13321, 47.65654, 0.0 ] } },
{ "type": "Feature", "properties": { "Name": "Coop Embrach", "Description": "" }, "geometry": { "type": "Point", "coordinates": [ 8.59419, 47.51107, 0.0 ] } },
{ "type": "Feature", "properties": { "Name": "Coop Altstaetten", "Description": "" }, "geometry": { "type": "Point", "coordinates": [ 9.53781, 47.37896, 0.0 ] } },
{ "type": "Feature", "properties": { "Name": "Coop Chur Tittwiesen", "Description": "" }, "geometry": { "type": "Point", "coordinates": [ 9.52681, 46.8591, 0.0 ] } },
{ "type": "Feature", "properties": { "Name": "Coop Sevelen", "Description": "" }, "geometry": { "type": "Point", "coordinates": [ 9.48995, 47.12258, 0.0 ] } },
{ "type": "Feature", "properties": { "Name": "Coop Churwalden", "Description": "" }, "geometry": { "type": "Point", "coordinates": [ 9.5442, 46.77925, 0.0 ] } },
{ "type": "Feature", "properties": { "Name": "Coop Pontresina", "Description": "" }, "geometry": { "type": "Point", "coordinates": [ 9.90592, 46.48868, 0.0 ] } },
{ "type": "Feature", "properties": { "Name": "Coop Scuol", "Description": "" }, "geometry": { "type": "Point", "coordinates": [ 10.29968, 46.79737, 0.0 ] } },
{ "type": "Feature", "properties": { "Name": "Coop Sargans", "Description": "" }, "geometry": { "type": "Point", "coordinates": [ 9.44072, 47.0474, 0.0 ] } },
{ "type": "Feature", "properties": { "Name": "Coop Flims", "Description": "" }, "geometry": { "type": "Point", "coordinates": [ 9.28298, 46.83618, 0.0 ] } },
{ "type": "Feature", "properties": { "Name": "Coop Chur Kurfirsten", "Description": "" }, "geometry": { "type": "Point", "coordinates": [ 9.52017, 46.85762, 0.0 ] } },
{ "type": "Feature", "properties": { "Name": "Coop Ebnat-Kappel", "Description": "" }, "geometry": { "type": "Point", "coordinates": [ 9.12131, 47.26543, 0.0 ] } },
{ "type": "Feature", "properties": { "Name": "Coop Brugg Neumarkt", "Description": "" }, "geometry": { "type": "Point", "coordinates": [ 8.20926, 47.48227, 0.0 ] } },
{ "type": "Feature", "properties": { "Name": "Coop Aarau Food", "Description": "" }, "geometry": { "type": "Point", "coordinates": [ 8.04598, 47.39168, 0.0 ] } },
{ "type": "Feature", "properties": { "Name": "Coop Oberwil", "Description": "" }, "geometry": { "type": "Point", "coordinates": [ 7.55786, 47.51449, 0.0 ] } },
{ "type": "Feature", "properties": { "Name": "Coop Binningen", "Description": "" }, "geometry": { "type": "Point", "coordinates": [ 7.57275, 47.53992, 0.0 ] } },
{ "type": "Feature", "properties": { "Name": "Coop Basel Breite", "Description": "" }, "geometry": { "type": "Point", "coordinates": [ 7.61374, 47.5552, 0.0 ] } },
{ "type": "Feature", "properties": { "Name": "Coop Oberdorf", "Description": "" }, "geometry": { "type": "Point", "coordinates": [ 7.74867, 47.39441, 0.0 ] } },
{ "type": "Feature", "properties": { "Name": "Coop Riehen Schmiedgasse", "Description": "" }, "geometry": { "type": "Point", "coordinates": [ 7.6506, 47.58505, 0.0 ] } },
{ "type": "Feature", "properties": { "Name": "Coop Arlesheim", "Description": "" }, "geometry": { "type": "Point", "coordinates": [ 7.62047, 47.49502, 0.0 ] } },
{ "type": "Feature", "properties": { "Name": "Coop Basel Michelbacher", "Description": "" }, "geometry": { "type": "Point", "coordinates": [ 7.56234, 47.56595, 0.0 ] } },
{ "type": "Feature", "properties": { "Name": "Coop Basel Wiesenplatz", "Description": "" }, "geometry": { "type": "Point", "coordinates": [ 7.59102, 47.57677, 0.0 ] } },
{ "type": "Feature", "properties": { "Name": "Coop Kaiseraugst", "Description": "" }, "geometry": { "type": "Point", "coordinates": [ 7.73203, 47.53822, 0.0 ] } },
{ "type": "Feature", "properties": { "Name": "Coop Laufenburg", "Description": "" }, "geometry": { "type": "Point", "coordinates": [ 8.06115, 47.56024, 0.0 ] } },
{ "type": "Feature", "properties": { "Name": "Coop Therwil", "Description": "" }, "geometry": { "type": "Point", "coordinates": [ 7.55451, 47.49911, 0.0 ] } },
{ "type": "Feature", "properties": { "Name": "Coop Dornach", "Description": "" }, "geometry": { "type": "Point", "coordinates": [ 7.6088, 47.48866, 0.0 ] } },
{ "type": "Feature", "properties": { "Name": "Coop Bellinzona Centro", "Description": "" }, "geometry": { "type": "Point", "coordinates": [ 9.0248, 46.19472, 0.0 ] } },
{ "type": "Feature", "properties": { "Name": "Coop Mendrisio Centro", "Description": "" }, "geometry": { "type": "Point", "coordinates": [ 8.98496, 45.87064, 0.0 ] } },
{ "type": "Feature", "properties": { "Name": "Coop Taverne", "Description": "" }, "geometry": { "type": "Point", "coordinates": [ 8.92918, 46.06194, 0.0 ] } },
{ "type": "Feature", "properties": { "Name": "Coop Wabern", "Description": "" }, "geometry": { "type": "Point", "coordinates": [ 7.45045, 46.92854, 0.0 ] } },
{ "type": "Feature", "properties": { "Name": "Coop Bolligen", "Description": "" }, "geometry": { "type": "Point", "coordinates": [ 7.49658, 46.97392, 0.0 ] } },
{ "type": "Feature", "properties": { "Name": "Coop Bueren", "Description": "" }, "geometry": { "type": "Point", "coordinates": [ 7.37775, 47.13979, 0.0 ] } },
{ "type": "Feature", "properties": { "Name": "Coop Bern Freudenberg", "Description": "" }, "geometry": { "type": "Point", "coordinates": [ 7.47276, 46.9454, 0.0 ] } },
{ "type": "Feature", "properties": { "Name": "Coop Koeniz Steinhoelzli", "Description": "" }, "geometry": { "type": "Point", "coordinates": [ 7.42826, 46.93036, 0.0 ] } },
{ "type": "Feature", "properties": { "Name": "Coop Steffisburg", "Description": "" }, "geometry": { "type": "Point", "coordinates": [ 7.63332, 46.77576, 0.0 ] } },
{ "type": "Feature", "properties": { "Name": "Coop Spiez", "Description": "" }, "geometry": { "type": "Point", "coordinates": [ 7.67575, 46.68945, 0.0 ] } },
{ "type": "Feature", "properties": { "Name": "Coop Frutigen", "Description": "" }, "geometry": { "type": "Point", "coordinates": [ 7.647, 46.58737, 0.0 ] } },
{ "type": "Feature", "properties": { "Name": "Coop Zuerich Grosswiesenstrasse", "Description": "" }, "geometry": { "type": "Point", "coordinates": [ 8.58804, 47.40345, 0.0 ] } },
{ "type": "Feature", "properties": { "Name": "Coop Regensdorf Zentrum", "Description": "" }, "geometry": { "type": "Point", "coordinates": [ 8.46901, 47.43138, 0.0 ] } },
{ "type": "Feature", "properties": { "Name": "Coop Dietikon Florastrasse", "Description": "" }, "geometry": { "type": "Point", "coordinates": [ 8.40259, 47.40374, 0.0 ] } },
{ "type": "Feature", "properties": { "Name": "Coop Birmensdorf", "Description": "" }, "geometry": { "type": "Point", "coordinates": [ 8.43641, 47.35408, 0.0 ] } },
{ "type": "Feature", "properties": { "Name": "Coop Duebendorf", "Description": "" }, "geometry": { "type": "Point", "coordinates": [ 8.6166, 47.39733, 0.0 ] } },
{ "type": "Feature", "properties": { "Name": "Coop Zuerich Stadelhofen", "Description": "" }, "geometry": { "type": "Point", "coordinates": [ 8.54786, 47.3666, 0.0 ] } },
{ "type": "Feature", "properties": { "Name": "Coop Zuerich Kreuzplatz", "Description": "" }, "geometry": { "type": "Point", "coordinates": [ 8.55492, 47.36435, 0.0 ] } },
{ "type": "Feature", "properties": { "Name": "Coop Hinwil Hiwi-Maert", "Description": "" }, "geometry": { "type": "Point", "coordinates": [ 8.83765, 47.29913, 0.0 ] } },
{ "type": "Feature", "properties": { "Name": "Coop Trimbach", "Description": "" }, "geometry": { "type": "Point", "coordinates": [ 7.90023, 47.36153, 0.0 ] } },
{ "type": "Feature", "properties": { "Name": "Coop Olten Wilerfeld", "Description": "" }, "geometry": { "type": "Point", "coordinates": [ 7.92148, 47.34674, 0.0 ] } },
{ "type": "Feature", "properties": { "Name": "Coop Egerkingen", "Description": "" }, "geometry": { "type": "Point", "coordinates": [ 7.79474, 47.32147, 0.0 ] } },
{ "type": "Feature", "properties": { "Name": "Coop Gerlafingen", "Description": "" }, "geometry": { "type": "Point", "coordinates": [ 7.57306, 47.17107, 0.0 ] } },
{ "type": "Feature", "properties": { "Name": "Coop Solothurn Westring", "Description": "" }, "geometry": { "type": "Point", "coordinates": [ 7.53434, 47.20762, 0.0 ] } },
{ "type": "Feature", "properties": { "Name": "Coop Balsthal", "Description": "" }, "geometry": { "type": "Point", "coordinates": [ 7.69476, 47.31658, 0.0 ] } },
{ "type": "Feature", "properties": { "Name": "Coop Huttwil", "Description": "" }, "geometry": { "type": "Point", "coordinates": [ 7.84402, 47.1138, 0.0 ] } },
{ "type": "Feature", "properties": { "Name": "Coop Solothurn Bruehl", "Description": "" }, "geometry": { "type": "Point", "coordinates": [ 7.51588, 47.20809, 0.0 ] } },
{ "type": "Feature", "properties": { "Name": "Coop Bellach", "Description": "" }, "geometry": { "type": "Point", "coordinates": [ 7.4966, 47.21265, 0.0 ] } },
{ "type": "Feature", "properties": { "Name": "Coop Olten", "Description": "" }, "geometry": { "type": "Point", "coordinates": [ 7.90293, 47.35053, 0.0 ] } },
{ "type": "Feature", "properties": { "Name": "Coop Carouge Cardinal Mermillod", "Description": "" }, "geometry": { "type": "Point", "coordinates": [ 6.1441, 46.18525, 0.0 ] } },
{ "type": "Feature", "properties": { "Name": "Coop Vesenaz", "Description": "" }, "geometry": { "type": "Point", "coordinates": [ 6.19749, 46.23921, 0.0 ] } },
{ "type": "Feature", "properties": { "Name": "Coop Le Lignon", "Description": "" }, "geometry": { "type": "Point", "coordinates": [ 6.09612, 46.20353, 0.0 ] } },
{ "type": "Feature", "properties": { "Name": "Coop Nyon Levratte", "Description": "" }, "geometry": { "type": "Point", "coordinates": [ 6.22873, 46.38809, 0.0 ] } },
{ "type": "Feature", "properties": { "Name": "Coop Pully", "Description": "" }, "geometry": { "type": "Point", "coordinates": [ 6.65821, 46.51058, 0.0 ] } },
{ "type": "Feature", "properties": { "Name": "Coop Lausanne Pontaise", "Description": "" }, "geometry": { "type": "Point", "coordinates": [ 6.63049, 46.52941, 0.0 ] } },
{ "type": "Feature", "properties": { "Name": "Coop Luzern Winkelried", "Description": "" }, "geometry": { "type": "Point", "coordinates": [ 8.30702, 47.04639, 0.0 ] } },
{ "type": "Feature", "properties": { "Name": "Coop Littau", "Description": "" }, "geometry": { "type": "Point", "coordinates": [ 8.27108, 47.05104, 0.0 ] } },
{ "type": "Feature", "properties": { "Name": "Coop Erstfeld", "Description": "" }, "geometry": { "type": "Point", "coordinates": [ 8.64904, 46.82432, 0.0 ] } },
{ "type": "Feature", "properties": { "Name": "Coop Schuepfheim", "Description": "" }, "geometry": { "type": "Point", "coordinates": [ 8.01537, 46.94873, 0.0 ] } },
{ "type": "Feature", "properties": { "Name": "Coop Triengen", "Description": "" }, "geometry": { "type": "Point", "coordinates": [ 8.07447, 47.2377, 0.0 ] } },
{ "type": "Feature", "properties": { "Name": "Coop Muenchwilen", "Description": "" }, "geometry": { "type": "Point", "coordinates": [ 8.99559, 47.47928, 0.0 ] } },
{ "type": "Feature", "properties": { "Name": "Coop Bad Ragaz", "Description": "" }, "geometry": { "type": "Point", "coordinates": [ 9.50216, 47.00333, 0.0 ] } },
{ "type": "Feature", "properties": { "Name": "Coop Mels Dorf", "Description": "" }, "geometry": { "type": "Point", "coordinates": [ 9.4208, 47.04732, 0.0 ] } },
{ "type": "Feature", "properties": { "Name": "Coop Basel Hauenstein", "Description": "" }, "geometry": { "type": "Point", "coordinates": [ 7.59315, 47.53421, 0.0 ] } },
{ "type": "Feature", "properties": { "Name": "Coop Basel Mattenstrasse", "Description": "" }, "geometry": { "type": "Point", "coordinates": [ 7.60106, 47.56733, 0.0 ] } },
{ "type": "Feature", "properties": { "Name": "Coop Bodio", "Description": "" }, "geometry": { "type": "Point", "coordinates": [ 8.91848, 46.37506, 0.0 ] } },
{ "type": "Feature", "properties": { "Name": "Coop Bosco Gurin", "Description": "" }, "geometry": { "type": "Point", "coordinates": [ 8.49251, 46.3163, 0.0 ] } },
{ "type": "Feature", "properties": { "Name": "Coop Castione", "Description": "" }, "geometry": { "type": "Point", "coordinates": [ 9.04733, 46.22325, 0.0 ] } },
{ "type": "Feature", "properties": { "Name": "Coop Bern Muesmatt", "Description": "" }, "geometry": { "type": "Point", "coordinates": [ 7.42872, 46.9539, 0.0 ] } },
{ "type": "Feature", "properties": { "Name": "Coop La Chaux-de-Fonds Piscine", "Description": "" }, "geometry": { "type": "Point", "coordinates": [ 6.83029, 47.0956, 0.0 ] } },
{ "type": "Feature", "properties": { "Name": "Coop Le Noirmont", "Description": "" }, "geometry": { "type": "Point", "coordinates": [ 6.95627, 47.22439, 0.0 ] } },
{ "type": "Feature", "properties": { "Name": "Coop Les Breuleux", "Description": "" }, "geometry": { "type": "Point", "coordinates": [ 7.00419, 47.21002, 0.0 ] } },
{ "type": "Feature", "properties": { "Name": "Coop Sigriswil", "Description": "" }, "geometry": { "type": "Point", "coordinates": [ 7.71413, 46.71789, 0.0 ] } },
{ "type": "Feature", "properties": { "Name": "Coop Zuerich Josefstrasse", "Description": "" }, "geometry": { "type": "Point", "coordinates": [ 8.52725, 47.38471, 0.0 ] } },
{ "type": "Feature", "properties": { "Name": "Coop Kilchberg", "Description": "" }, "geometry": { "type": "Point", "coordinates": [ 8.54899, 47.32311, 0.0 ] } },
{ "type": "Feature", "properties": { "Name": "Coop Zuerich Fluntern", "Description": "" }, "geometry": { "type": "Point", "coordinates": [ 8.55971, 47.3764, 0.0 ] } },
{ "type": "Feature", "properties": { "Name": "Coop Zollikon", "Description": "" }, "geometry": { "type": "Point", "coordinates": [ 8.57667, 47.33691, 0.0 ] } },
{ "type": "Feature", "properties": { "Name": "Coop Ebmatingen", "Description": "" }, "geometry": { "type": "Point", "coordinates": [ 8.64243, 47.35124, 0.0 ] } },
{ "type": "Feature", "properties": { "Name": "Coop Opfikon", "Description": "" }, "geometry": { "type": "Point", "coordinates": [ 8.5637, 47.4284, 0.0 ] } },
{ "type": "Feature", "properties": { "Name": "Coop Matzendorf", "Description": "" }, "geometry": { "type": "Point", "coordinates": [ 7.62913, 47.30631, 0.0 ] } },
{ "type": "Feature", "properties": { "Name": "Coop Grimisuat", "Description": "" }, "geometry": { "type": "Point", "coordinates": [ 7.38781, 46.26161, 0.0 ] } },
{ "type": "Feature", "properties": { "Name": "Coop Treyvaux", "Description": "" }, "geometry": { "type": "Point", "coordinates": [ 7.13695, 46.72733, 0.0 ] } },
{ "type": "Feature", "properties": { "Name": "Coop Vuadens", "Description": "" }, "geometry": { "type": "Point", "coordinates": [ 7.02067, 46.61754, 0.0 ] } },
{ "type": "Feature", "properties": { "Name": "Coop Geneve Chatelaine", "Description": "" }, "geometry": { "type": "Point", "coordinates": [ 6.11265, 46.21155, 0.0 ] } },
{ "type": "Feature", "properties": { "Name": "Coop Confignon", "Description": "" }, "geometry": { "type": "Point", "coordinates": [ 6.0832, 46.17455, 0.0 ] } },
{ "type": "Feature", "properties": { "Name": "Coop Lausanne Chissiez", "Description": "" }, "geometry": { "type": "Point", "coordinates": [ 6.64714, 46.51396, 0.0 ] } },
{ "type": "Feature", "properties": { "Name": "Coop Cully", "Description": "" }, "geometry": { "type": "Point", "coordinates": [ 6.72868, 46.48813, 0.0 ] } },
{ "type": "Feature", "properties": { "Name": "Coop Celerina", "Description": "" }, "geometry": { "type": "Point", "coordinates": [ 9.8597, 46.51304, 0.0 ] } },
{ "type": "Feature", "properties": { "Name": "Coop Waldstatt", "Description": "" }, "geometry": { "type": "Point", "coordinates": [ 9.28546, 47.35787, 0.0 ] } },
{ "type": "Feature", "properties": { "Name": "Coop Rohr", "Description": "" }, "geometry": { "type": "Point", "coordinates": [ 8.08084, 47.40191, 0.0 ] } },
{ "type": "Feature", "properties": { "Name": "Coop Neuenhof", "Description": "" }, "geometry": { "type": "Point", "coordinates": [ 8.32846, 47.44915, 0.0 ] } },
{ "type": "Feature", "properties": { "Name": "Coop Othmarsingen", "Description": "" }, "geometry": { "type": "Point", "coordinates": [ 8.21565, 47.40074, 0.0 ] } },
{ "type": "Feature", "properties": { "Name": "Coop Brugg Sonnenberg", "Description": "" }, "geometry": { "type": "Point", "coordinates": [ 8.21695, 47.48992, 0.0 ] } },
{ "type": "Feature", "properties": { "Name": "Coop Basel Schorenweg", "Description": "" }, "geometry": { "type": "Point", "coordinates": [ 7.60987, 47.57033, 0.0 ] } },
{ "type": "Feature", "properties": { "Name": "Coop Riehen Loerracher", "Description": "" }, "geometry": { "type": "Point", "coordinates": [ 7.65509, 47.59399, 0.0 ] } },
{ "type": "Feature", "properties": { "Name": "Coop Basel Wanderstrasse", "Description": "" }, "geometry": { "type": "Point", "coordinates": [ 7.56241, 47.5518, 0.0 ] } },
{ "type": "Feature", "properties": { "Name": "Coop Dongio", "Description": "" }, "geometry": { "type": "Point", "coordinates": [ 8.95296, 46.43957, 0.0 ] } },
{ "type": "Feature", "properties": { "Name": "Coop Mesocco", "Description": "" }, "geometry": { "type": "Point", "coordinates": [ 9.23278, 46.39124, 0.0 ] } },
{ "type": "Feature", "properties": { "Name": "Coop Malvaglia", "Description": "" }, "geometry": { "type": "Point", "coordinates": [ 8.97738, 46.41283, 0.0 ] } },
{ "type": "Feature", "properties": { "Name": "Coop Bissone PY", "Description": "" }, "geometry": { "type": "Point", "coordinates": [ 8.96563, 45.95342, 0.0 ] } },
{ "type": "Feature", "properties": { "Name": "Coop Biel Moserstrasse", "Description": "" }, "geometry": { "type": "Point", "coordinates": [ 7.25549, 47.1267, 0.0 ] } },
{ "type": "Feature", "properties": { "Name": "Coop Schmitten", "Description": "" }, "geometry": { "type": "Point", "coordinates": [ 7.24874, 46.85594, 0.0 ] } },
{ "type": "Feature", "properties": { "Name": "Coop Ruefenacht", "Description": "" }, "geometry": { "type": "Point", "coordinates": [ 7.53036, 46.93092, 0.0 ] } },
{ "type": "Feature", "properties": { "Name": "Coop Alle", "Description": "" }, "geometry": { "type": "Point", "coordinates": [ 7.12749, 47.4263, 0.0 ] } },
{ "type": "Feature", "properties": { "Name": "Coop Allmendingen", "Description": "" }, "geometry": { "type": "Point", "coordinates": [ 7.59493, 46.74349, 0.0 ] } },
{ "type": "Feature", "properties": { "Name": "Coop Thun Lerchenfeld", "Description": "" }, "geometry": { "type": "Point", "coordinates": [ 7.60059, 46.76457, 0.0 ] } },
{ "type": "Feature", "properties": { "Name": "Coop Huenibach", "Description": "" }, "geometry": { "type": "Point", "coordinates": [ 7.64346, 46.74571, 0.0 ] } },
{ "type": "Feature", "properties": { "Name": "Coop Reichenbach", "Description": "" }, "geometry": { "type": "Point", "coordinates": [ 7.69057, 46.6252, 0.0 ] } },
{ "type": "Feature", "properties": { "Name": "Coop Kandersteg", "Description": "" }, "geometry": { "type": "Point", "coordinates": [ 7.67311, 46.49485, 0.0 ] } },
{ "type": "Feature", "properties": { "Name": "Coop Muerren", "Description": "" }, "geometry": { "type": "Point", "coordinates": [ 7.89285, 46.55941, 0.0 ] } },
{ "type": "Feature", "properties": { "Name": "Coop Zuerich Hohlstrasse", "Description": "" }, "geometry": { "type": "Point", "coordinates": [ 8.52646, 47.37712, 0.0 ] } },
{ "type": "Feature", "properties": { "Name": "Coop Zuerich Ruetihof", "Description": "" }, "geometry": { "type": "Point", "coordinates": [ 8.47955, 47.41378, 0.0 ] } },
{ "type": "Feature", "properties": { "Name": "Coop Kuesnacht Itschnach", "Description": "" }, "geometry": { "type": "Point", "coordinates": [ 8.60156, 47.32705, 0.0 ] } },
{ "type": "Feature", "properties": { "Name": "Coop Zollikerberg", "Description": "" }, "geometry": { "type": "Point", "coordinates": [ 8.60185, 47.34612, 0.0 ] } },
{ "type": "Feature", "properties": { "Name": "Coop Zuerich Roemerhof", "Description": "" }, "geometry": { "type": "Point", "coordinates": [ 8.56083, 47.36782, 0.0 ] } },
{ "type": "Feature", "properties": { "Name": "Coop Wiedlisbach", "Description": "" }, "geometry": { "type": "Point", "coordinates": [ 7.64749, 47.25285, 0.0 ] } },
{ "type": "Feature", "properties": { "Name": "Coop Madiswil", "Description": "" }, "geometry": { "type": "Point", "coordinates": [ 7.79819, 47.16547, 0.0 ] } },
{ "type": "Feature", "properties": { "Name": "Coop Buetzberg", "Description": "" }, "geometry": { "type": "Point", "coordinates": [ 7.74561, 47.21504, 0.0 ] } },
{ "type": "Feature", "properties": { "Name": "Coop Grimentz", "Description": "" }, "geometry": { "type": "Point", "coordinates": [ 7.57342, 46.17506, 0.0 ] } },
{ "type": "Feature", "properties": { "Name": "Coop Broc", "Description": "" }, "geometry": { "type": "Point", "coordinates": [ 7.10081, 46.60301, 0.0 ] } },
{ "type": "Feature", "properties": { "Name": "Coop La Roche", "Description": "" }, "geometry": { "type": "Point", "coordinates": [ 7.13702, 46.69628, 0.0 ] } },
{ "type": "Feature", "properties": { "Name": "Coop Thierrens", "Description": "" }, "geometry": { "type": "Point", "coordinates": [ 6.75449, 46.70421, 0.0 ] } },
{ "type": "Feature", "properties": { "Name": "Coop Saint-Ursanne", "Description": "" }, "geometry": { "type": "Point", "coordinates": [ 7.15484, 47.36553, 0.0 ] } },
{ "type": "Feature", "properties": { "Name": "Coop Cortaillod Village", "Description": "" }, "geometry": { "type": "Point", "coordinates": [ 6.84529, 46.9437, 0.0 ] } },
{ "type": "Feature", "properties": { "Name": "Coop Geneve Saint-Jean", "Description": "" }, "geometry": { "type": "Point", "coordinates": [ 6.12453, 46.20399, 0.0 ] } },
{ "type": "Feature", "properties": { "Name": "Coop Meyrin Verchere", "Description": "" }, "geometry": { "type": "Point", "coordinates": [ 6.07249, 46.22837, 0.0 ] } },
{ "type": "Feature", "properties": { "Name": "Coop Petit-Lancy Ormeaux", "Description": "" }, "geometry": { "type": "Point", "coordinates": [ 6.11937, 46.19013, 0.0 ] } },
{ "type": "Feature", "properties": { "Name": "Coop Lausanne Cour", "Description": "" }, "geometry": { "type": "Point", "coordinates": [ 6.61354, 46.51604, 0.0 ] } },
{ "type": "Feature", "properties": { "Name": "Coop Mont-Sur-Lausanne", "Description": "" }, "geometry": { "type": "Point", "coordinates": [ 6.63495, 46.55408, 0.0 ] } },
{ "type": "Feature", "properties": { "Name": "Coop Champery", "Description": "" }, "geometry": { "type": "Point", "coordinates": [ 6.86722, 46.17564, 0.0 ] } },
{ "type": "Feature", "properties": { "Name": "Coop Goeschenen", "Description": "" }, "geometry": { "type": "Point", "coordinates": [ 8.58717, 46.6682, 0.0 ] } },
{ "type": "Feature", "properties": { "Name": "Coop Urnaesch", "Description": "" }, "geometry": { "type": "Point", "coordinates": [ 9.28192, 47.31652, 0.0 ] } },
{ "type": "Feature", "properties": { "Name": "Coop Felsberg", "Description": "" }, "geometry": { "type": "Point", "coordinates": [ 9.47875, 46.84578, 0.0 ] } },
{ "type": "Feature", "properties": { "Name": "Coop St. Moritz-Dorf", "Description": "" }, "geometry": { "type": "Point", "coordinates": [ 9.83884, 46.49882, 0.0 ] } },
{ "type": "Feature", "properties": { "Name": "Coop Basel Helvetiaplatz", "Description": "" }, "geometry": { "type": "Point", "coordinates": [ 7.56737, 47.56021, 0.0 ] } },
{ "type": "Feature", "properties": { "Name": "Coop Basel Fischmaert", "Description": "" }, "geometry": { "type": "Point", "coordinates": [ 7.58719, 47.55958, 0.0 ] } },
{ "type": "Feature", "properties": { "Name": "Coop Nunningen", "Description": "" }, "geometry": { "type": "Point", "coordinates": [ 7.62041, 47.39369, 0.0 ] } },
{ "type": "Feature", "properties": { "Name": "Coop Cevio", "Description": "" }, "geometry": { "type": "Point", "coordinates": [ 8.60178, 46.31793, 0.0 ] } },
{ "type": "Feature", "properties": { "Name": "Coop Arzo", "Description": "" }, "geometry": { "type": "Point", "coordinates": [ 8.94028, 45.87449, 0.0 ] } },
{ "type": "Feature", "properties": { "Name": "Coop Claro", "Description": "" }, "geometry": { "type": "Point", "coordinates": [ 9.02274, 46.25279, 0.0 ] } },
{ "type": "Feature", "properties": { "Name": "Coop Mendrisio Stazione", "Description": "" }, "geometry": { "type": "Point", "coordinates": [ 8.97743, 45.86743, 0.0 ] } },
{ "type": "Feature", "properties": { "Name": "Coop Koeniz Schliern", "Description": "" }, "geometry": { "type": "Point", "coordinates": [ 7.41597, 46.90976, 0.0 ] } },
{ "type": "Feature", "properties": { "Name": "Coop Kehrsatz", "Description": "" }, "geometry": { "type": "Point", "coordinates": [ 7.47057, 46.91081, 0.0 ] } },
{ "type": "Feature", "properties": { "Name": "Coop Niederscherli", "Description": "" }, "geometry": { "type": "Point", "coordinates": [ 7.38832, 46.88544, 0.0 ] } },
{ "type": "Feature", "properties": { "Name": "Coop Rueschegg Heubach", "Description": "" }, "geometry": { "type": "Point", "coordinates": [ 7.40817, 46.78099, 0.0 ] } },
{ "type": "Feature", "properties": { "Name": "Coop Toffen", "Description": "" }, "geometry": { "type": "Point", "coordinates": [ 7.49372, 46.86032, 0.0 ] } },
{ "type": "Feature", "properties": { "Name": "Coop Uettligen", "Description": "" }, "geometry": { "type": "Point", "coordinates": [ 7.38481, 46.98789, 0.0 ] } },
{ "type": "Feature", "properties": { "Name": "Coop Bern Zaehringerstrasse", "Description": "" }, "geometry": { "type": "Point", "coordinates": [ 7.43203, 46.95637, 0.0 ] } },
{ "type": "Feature", "properties": { "Name": "Coop La Chaux-de-Fonds Etoile", "Description": "" }, "geometry": { "type": "Point", "coordinates": [ 6.83494, 47.10379, 0.0 ] } },
{ "type": "Feature", "properties": { "Name": "Coop La Chaux-de-Fonds Bel-Air", "Description": "" }, "geometry": { "type": "Point", "coordinates": [ 6.82887, 47.11065, 0.0 ] } },
{ "type": "Feature", "properties": { "Name": "Coop Sonceboz", "Description": "" }, "geometry": { "type": "Point", "coordinates": [ 7.17796, 47.19504, 0.0 ] } },
{ "type": "Feature", "properties": { "Name": "Coop Boncourt", "Description": "" }, "geometry": { "type": "Point", "coordinates": [ 7.01251, 47.49726, 0.0 ] } },
{ "type": "Feature", "properties": { "Name": "Coop Wengen", "Description": "" }, "geometry": { "type": "Point", "coordinates": [ 7.92224, 46.60483, 0.0 ] } },
{ "type": "Feature", "properties": { "Name": "Coop Pfaeffikon SZ Etzelstrasse", "Description": "" }, "geometry": { "type": "Point", "coordinates": [ 8.77816, 47.20046, 0.0 ] } },
{ "type": "Feature", "properties": { "Name": "Coop Gommiswald", "Description": "" }, "geometry": { "type": "Point", "coordinates": [ 9.02036, 47.23336, 0.0 ] } },
{ "type": "Feature", "properties": { "Name": "Coop Wollerau", "Description": "" }, "geometry": { "type": "Point", "coordinates": [ 8.72308, 47.19516, 0.0 ] } },
{ "type": "Feature", "properties": { "Name": "Coop Zuerich Manessehof", "Description": "" }, "geometry": { "type": "Point", "coordinates": [ 8.52104, 47.36495, 0.0 ] } },
{ "type": "Feature", "properties": { "Name": "Coop Uster Oberuster", "Description": "" }, "geometry": { "type": "Point", "coordinates": [ 8.73068, 47.34505, 0.0 ] } },
{ "type": "Feature", "properties": { "Name": "Coop Effretikon Watt", "Description": "" }, "geometry": { "type": "Point", "coordinates": [ 8.69222, 47.42679, 0.0 ] } },
{ "type": "Feature", "properties": { "Name": "Coop Dietikon Brunau", "Description": "" }, "geometry": { "type": "Point", "coordinates": [ 8.41787, 47.39813, 0.0 ] } },
{ "type": "Feature", "properties": { "Name": "Coop Zuerich Universitaetstrasse", "Description": "" }, "geometry": { "type": "Point", "coordinates": [ 8.54796, 47.38252, 0.0 ] } },
{ "type": "Feature", "properties": { "Name": "Coop Buchs ZH", "Description": "" }, "geometry": { "type": "Point", "coordinates": [ 8.43824, 47.45773, 0.0 ] } },
{ "type": "Feature", "properties": { "Name": "Coop Fehraltorf", "Description": "" }, "geometry": { "type": "Point", "coordinates": [ 8.75503, 47.38685, 0.0 ] } },
{ "type": "Feature", "properties": { "Name": "Coop Zuerich Schwellistrasse", "Description": "" }, "geometry": { "type": "Point", "coordinates": [ 8.53779, 47.42495, 0.0 ] } },
{ "type": "Feature", "properties": { "Name": "Coop Eschenbach", "Description": "" }, "geometry": { "type": "Point", "coordinates": [ 8.91988, 47.24074, 0.0 ] } },
{ "type": "Feature", "properties": { "Name": "Coop Au Waedenswil", "Description": "" }, "geometry": { "type": "Point", "coordinates": [ 8.65615, 47.2415, 0.0 ] } },
{ "type": "Feature", "properties": { "Name": "Coop Reichenburg", "Description": "" }, "geometry": { "type": "Point", "coordinates": [ 8.98002, 47.1674, 0.0 ] } },
{ "type": "Feature", "properties": { "Name": "Coop Leytron", "Description": "" }, "geometry": { "type": "Point", "coordinates": [ 7.20784, 46.1858, 0.0 ] } },
{ "type": "Feature", "properties": { "Name": "Coop Riddes", "Description": "" }, "geometry": { "type": "Point", "coordinates": [ 7.22055, 46.17209, 0.0 ] } },
{ "type": "Feature", "properties": { "Name": "Coop Montana", "Description": "" }, "geometry": { "type": "Point", "coordinates": [ 7.48306, 46.31174, 0.0 ] } },
{ "type": "Feature", "properties": { "Name": "Coop Evolene", "Description": "" }, "geometry": { "type": "Point", "coordinates": [ 7.50101, 46.10836, 0.0 ] } },
{ "type": "Feature", "properties": { "Name": "Coop Fribourg Jura", "Description": "" }, "geometry": { "type": "Point", "coordinates": [ 7.14421, 46.80946, 0.0 ] } },
{ "type": "Feature", "properties": { "Name": "Coop Courroux", "Description": "" }, "geometry": { "type": "Point", "coordinates": [ 7.37735, 47.3615, 0.0 ] } },
{ "type": "Feature", "properties": { "Name": "Coop Geneve Rue de Lausanne", "Description": "" }, "geometry": { "type": "Point", "coordinates": [ 6.14569, 46.2132, 0.0 ] } },
{ "type": "Feature", "properties": { "Name": "Coop Grand-Lancy", "Description": "" }, "geometry": { "type": "Point", "coordinates": [ 6.1202, 46.18244, 0.0 ] } },
{ "type": "Feature", "properties": { "Name": "Coop Geneve Voltaire", "Description": "" }, "geometry": { "type": "Point", "coordinates": [ 6.13681, 46.20813, 0.0 ] } },
{ "type": "Feature", "properties": { "Name": "Coop Plan-Les-Ouates", "Description": "" }, "geometry": { "type": "Point", "coordinates": [ 6.1211, 46.1692, 0.0 ] } },
{ "type": "Feature", "properties": { "Name": "Coop Lausanne Chailly", "Description": "" }, "geometry": { "type": "Point", "coordinates": [ 6.65196, 46.52673, 0.0 ] } },
{ "type": "Feature", "properties": { "Name": "Coop Lausanne La Sallaz", "Description": "" }, "geometry": { "type": "Point", "coordinates": [ 6.6465, 46.53254, 0.0 ] } },
{ "type": "Feature", "properties": { "Name": "Coop Schattdorf", "Description": "" }, "geometry": { "type": "Point", "coordinates": [ 8.65468, 46.86561, 0.0 ] } },
{ "type": "Feature", "properties": { "Name": "Coop Kollbrunn", "Description": "" }, "geometry": { "type": "Point", "coordinates": [ 8.77424, 47.45787, 0.0 ] } },
{ "type": "Feature", "properties": { "Name": "Coop Elgg", "Description": "" }, "geometry": { "type": "Point", "coordinates": [ 8.86509, 47.4939, 0.0 ] } },
{ "type": "Feature", "properties": { "Name": "Coop Raeterschen", "Description": "" }, "geometry": { "type": "Point", "coordinates": [ 8.7972, 47.49841, 0.0 ] } },
{ "type": "Feature", "properties": { "Name": "Coop Rorbas", "Description": "" }, "geometry": { "type": "Point", "coordinates": [ 8.58071, 47.53095, 0.0 ] } },
{ "type": "Feature", "properties": { "Name": "Coop Hallau", "Description": "" }, "geometry": { "type": "Point", "coordinates": [ 8.46061, 47.69786, 0.0 ] } },
{ "type": "Feature", "properties": { "Name": "Coop Schleitheim", "Description": "" }, "geometry": { "type": "Point", "coordinates": [ 8.48062, 47.7467, 0.0 ] } },
{ "type": "Feature", "properties": { "Name": "Coop Matzingen", "Description": "" }, "geometry": { "type": "Point", "coordinates": [ 8.93502, 47.52036, 0.0 ] } },
{ "type": "Feature", "properties": { "Name": "Coop Waengi", "Description": "" }, "geometry": { "type": "Point", "coordinates": [ 8.9536, 47.49784, 0.0 ] } },
{ "type": "Feature", "properties": { "Name": "Coop Nesslau", "Description": "" }, "geometry": { "type": "Point", "coordinates": [ 9.19932, 47.2255, 0.0 ] } },
{ "type": "Feature", "properties": { "Name": "Coop Niederuzwil", "Description": "" }, "geometry": { "type": "Point", "coordinates": [ 9.13971, 47.44564, 0.0 ] } },
{ "type": "Feature", "properties": { "Name": "Coop Filisur", "Description": "" }, "geometry": { "type": "Point", "coordinates": [ 9.68568, 46.67329, 0.0 ] } },
{ "type": "Feature", "properties": { "Name": "Coop Bremgarten", "Description": "" }, "geometry": { "type": "Point", "coordinates": [ 8.34857, 47.35165, 0.0 ] } },
{ "type": "Feature", "properties": { "Name": "Coop Unterentfelden", "Description": "" }, "geometry": { "type": "Point", "coordinates": [ 8.05199, 47.36057, 0.0 ] } },
{ "type": "Feature", "properties": { "Name": "Coop Basel Gundeli", "Description": "" }, "geometry": { "type": "Point", "coordinates": [ 7.59311, 47.54299, 0.0 ] } },
{ "type": "Feature", "properties": { "Name": "Coop Moehlin", "Description": "" }, "geometry": { "type": "Point", "coordinates": [ 7.84222, 47.56337, 0.0 ] } },
{ "type": "Feature", "properties": { "Name": "Coop Lugano nord", "Description": "" }, "geometry": { "type": "Point", "coordinates": [ 8.9584, 46.0173, 0.0 ] } },
{ "type": "Feature", "properties": { "Name": "Coop Ostermundigen Bahnhofstrasse", "Description": "" }, "geometry": { "type": "Point", "coordinates": [ 7.48363, 46.95565, 0.0 ] } },
{ "type": "Feature", "properties": { "Name": "Coop Biel Nidaugasse", "Description": "" }, "geometry": { "type": "Point", "coordinates": [ 7.24705, 47.13862, 0.0 ] } },
{ "type": "Feature", "properties": { "Name": "Coop Kirchberg", "Description": "" }, "geometry": { "type": "Point", "coordinates": [ 7.58404, 47.08762, 0.0 ] } },
{ "type": "Feature", "properties": { "Name": "Coop Delemont", "Description": "" }, "geometry": { "type": "Point", "coordinates": [ 7.34706, 47.36481, 0.0 ] } },
{ "type": "Feature", "properties": { "Name": "Coop Zuerich Bahnhofbruecke", "Description": "" }, "geometry": { "type": "Point", "coordinates": [ 8.54212, 47.37671, 0.0 ] } },
{ "type": "Feature", "properties": { "Name": "Coop Zuerich Hoenggermarkt", "Description": "" }, "geometry": { "type": "Point", "coordinates": [ 8.4983, 47.40269, 0.0 ] } },
{ "type": "Feature", "properties": { "Name": "Coop Zuerich Altstetten", "Description": "" }, "geometry": { "type": "Point", "coordinates": [ 8.48922, 47.38748, 0.0 ] } },
{ "type": "Feature", "properties": { "Name": "Coop Zuerich Precisa", "Description": "" }, "geometry": { "type": "Point", "coordinates": [ 8.56267, 47.41109, 0.0 ] } },
{ "type": "Feature", "properties": { "Name": "Coop Zuerich Wollishofen", "Description": "" }, "geometry": { "type": "Point", "coordinates": [ 8.53066, 47.34017, 0.0 ] } },
{ "type": "Feature", "properties": { "Name": "Coop Rueti", "Description": "" }, "geometry": { "type": "Point", "coordinates": [ 8.85002, 47.25734, 0.0 ] } },
{ "type": "Feature", "properties": { "Name": "Coop Netstal Wiggispark", "Description": "" }, "geometry": { "type": "Point", "coordinates": [ 9.05865, 47.06739, 0.0 ] } },
{ "type": "Feature", "properties": { "Name": "Coop Pfaeffikon ZH", "Description": "" }, "geometry": { "type": "Point", "coordinates": [ 8.78207, 47.36891, 0.0 ] } },
{ "type": "Feature", "properties": { "Name": "Coop Zuerich St. Annahof Food", "Description": "" }, "geometry": { "type": "Point", "coordinates": [ 8.53782, 47.37292, 0.0 ] } },
{ "type": "Feature", "properties": { "Name": "Coop Sierre Max Huber", "Description": "" }, "geometry": { "type": "Point", "coordinates": [ 7.53488, 46.29386, 0.0 ] } },
{ "type": "Feature", "properties": { "Name": "Coop Geneve Fusterie Food", "Description": "" }, "geometry": { "type": "Point", "coordinates": [ 6.1452, 46.20416, 0.0 ] } },
{ "type": "Feature", "properties": { "Name": "Coop Au Centre", "Description": "" }, "geometry": { "type": "Point", "coordinates": [ 6.63046, 46.52265, 0.0 ] } },
{ "type": "Feature", "properties": { "Name": "Coop Zug Neustadt", "Description": "" }, "geometry": { "type": "Point", "coordinates": [ 8.51654, 47.17102, 0.0 ] } },
{ "type": "Feature", "properties": { "Name": "Coop Buochs", "Description": "" }, "geometry": { "type": "Point", "coordinates": [ 8.41577, 46.97917, 0.0 ] } },
{ "type": "Feature", "properties": { "Name": "Coop Winterthur Stadtgarten", "Description": "" }, "geometry": { "type": "Point", "coordinates": [ 8.7259, 47.50057, 0.0 ] } },
{ "type": "Feature", "properties": { "Name": "Coop Aadorf", "Description": "" }, "geometry": { "type": "Point", "coordinates": [ 8.89966, 47.49266, 0.0 ] } },
{ "type": "Feature", "properties": { "Name": "Coop Winterthur Wuelflingen", "Description": "" }, "geometry": { "type": "Point", "coordinates": [ 8.69157, 47.51024, 0.0 ] } },
{ "type": "Feature", "properties": { "Name": "Coop Appenzell", "Description": "" }, "geometry": { "type": "Point", "coordinates": [ 9.40733, 47.33363, 0.0 ] } },
{ "type": "Feature", "properties": { "Name": "Coop Wohlen", "Description": "" }, "geometry": { "type": "Point", "coordinates": [ 8.27048, 47.35059, 0.0 ] } },
{ "type": "Feature", "properties": { "Name": "Coop Basel Europe", "Description": "" }, "geometry": { "type": "Point", "coordinates": [ 7.59733, 47.56329, 0.0 ] } },
{ "type": "Feature", "properties": { "Name": "Coop Muttenz Dorf", "Description": "" }, "geometry": { "type": "Point", "coordinates": [ 7.64749, 47.52762, 0.0 ] } },
{ "type": "Feature", "properties": { "Name": "Coop Koeniz Stapfenmaerit", "Description": "" }, "geometry": { "type": "Point", "coordinates": [ 7.41548, 46.92329, 0.0 ] } },
{ "type": "Feature", "properties": { "Name": "Coop Zollikofen", "Description": "" }, "geometry": { "type": "Point", "coordinates": [ 7.45856, 46.99713, 0.0 ] } },
{ "type": "Feature", "properties": { "Name": "Coop Thalwil", "Description": "" }, "geometry": { "type": "Point", "coordinates": [ 8.56214, 47.29663, 0.0 ] } },
{ "type": "Feature", "properties": { "Name": "Coop Zofingen", "Description": "" }, "geometry": { "type": "Point", "coordinates": [ 7.94263, 47.29224, 0.0 ] } },
{ "type": "Feature", "properties": { "Name": "Coop Martigny Ville", "Description": "" }, "geometry": { "type": "Point", "coordinates": [ 7.07707, 46.10346, 0.0 ] } },
{ "type": "Feature", "properties": { "Name": "Coop La Tour-de-Peilz", "Description": "" }, "geometry": { "type": "Point", "coordinates": [ 6.85748, 46.45313, 0.0 ] } },
{ "type": "Feature", "properties": { "Name": "Coop Stans", "Description": "" }, "geometry": { "type": "Point", "coordinates": [ 8.36867, 46.95837, 0.0 ] } },
{ "type": "Feature", "properties": { "Name": "Coop Emmen", "Description": "" }, "geometry": { "type": "Point", "coordinates": [ 8.29049, 47.07326, 0.0 ] } },
{ "type": "Feature", "properties": { "Name": "Coop Ebikon", "Description": "" }, "geometry": { "type": "Point", "coordinates": [ 8.3432, 47.08264, 0.0 ] } },
{ "type": "Feature", "properties": { "Name": "Coop Buchs SG", "Description": "" }, "geometry": { "type": "Point", "coordinates": [ 9.47322, 47.16629, 0.0 ] } },
{ "type": "Feature", "properties": { "Name": "Coop Rorschach", "Description": "" }, "geometry": { "type": "Point", "coordinates": [ 9.49097, 47.47802, 0.0 ] } },
{ "type": "Feature", "properties": { "Name": "Coop Ilanz", "Description": "" }, "geometry": { "type": "Point", "coordinates": [ 9.20002, 46.77291, 0.0 ] } },
{ "type": "Feature", "properties": { "Name": "Coop Landquart", "Description": "" }, "geometry": { "type": "Point", "coordinates": [ 9.55635, 46.96685, 0.0 ] } },
{ "type": "Feature", "properties": { "Name": "Coop Liestal Stabhof", "Description": "" }, "geometry": { "type": "Point", "coordinates": [ 7.73526, 47.48398, 0.0 ] } },
{ "type": "Feature", "properties": { "Name": "Coop Muenchenstein Gartenstadt", "Description": "" }, "geometry": { "type": "Point", "coordinates": [ 7.60712, 47.5213, 0.0 ] } },
{ "type": "Feature", "properties": { "Name": "Coop Frick", "Description": "" }, "geometry": { "type": "Point", "coordinates": [ 8.01921, 47.50903, 0.0 ] } },
{ "type": "Feature", "properties": { "Name": "Coop Basel Spalemaert", "Description": "" }, "geometry": { "type": "Point", "coordinates": [ 7.57573, 47.56066, 0.0 ] } },
{ "type": "Feature", "properties": { "Name": "Coop Bern Bethlehem", "Description": "" }, "geometry": { "type": "Point", "coordinates": [ 7.39219, 46.95071, 0.0 ] } },
{ "type": "Feature", "properties": { "Name": "Coop Ittigen", "Description": "" }, "geometry": { "type": "Point", "coordinates": [ 7.48169, 46.97423, 0.0 ] } },
{ "type": "Feature", "properties": { "Name": "Coop Aarberg", "Description": "" }, "geometry": { "type": "Point", "coordinates": [ 7.27332, 47.04386, 0.0 ] } },
{ "type": "Feature", "properties": { "Name": "Coop Schwarzenburg", "Description": "" }, "geometry": { "type": "Point", "coordinates": [ 7.3419, 46.8198, 0.0 ] } },
{ "type": "Feature", "properties": { "Name": "Coop Burgdorf Stadt", "Description": "" }, "geometry": { "type": "Point", "coordinates": [ 7.62285, 47.05906, 0.0 ] } },
{ "type": "Feature", "properties": { "Name": "Coop Interlaken Ost", "Description": "" }, "geometry": { "type": "Point", "coordinates": [ 7.86925, 46.68968, 0.0 ] } },
{ "type": "Feature", "properties": { "Name": "Coop Pfaeffikon SZ Seedamm", "Description": "" }, "geometry": { "type": "Point", "coordinates": [ 8.79497, 47.20061, 0.0 ] } },
{ "type": "Feature", "properties": { "Name": "Coop Volketswil Volkiland", "Description": "" }, "geometry": { "type": "Point", "coordinates": [ 8.66762, 47.38251, 0.0 ] } },
{ "type": "Feature", "properties": { "Name": "Coop Schlieren Lilien", "Description": "" }, "geometry": { "type": "Point", "coordinates": [ 8.44887, 47.39729, 0.0 ] } },
{ "type": "Feature", "properties": { "Name": "Coop Oron-La-Ville", "Description": "" }, "geometry": { "type": "Point", "coordinates": [ 6.82028, 46.57063, 0.0 ] } },
{ "type": "Feature", "properties": { "Name": "Coop Geneve Augustins", "Description": "" }, "geometry": { "type": "Point", "coordinates": [ 6.14367, 46.1922, 0.0 ] } },
{ "type": "Feature", "properties": { "Name": "Coop Carouge Acacias", "Description": "" }, "geometry": { "type": "Point", "coordinates": [ 6.13671, 46.18879, 0.0 ] } },
{ "type": "Feature", "properties": { "Name": "Coop Geneve Servette", "Description": "" }, "geometry": { "type": "Point", "coordinates": [ 6.13166, 46.21245, 0.0 ] } },
{ "type": "Feature", "properties": { "Name": "Coop Geneve Montbrillant", "Description": "" }, "geometry": { "type": "Point", "coordinates": [ 6.14192, 46.22034, 0.0 ] } },
{ "type": "Feature", "properties": { "Name": "Coop Monthey", "Description": "" }, "geometry": { "type": "Point", "coordinates": [ 6.95012, 46.25243, 0.0 ] } },
{ "type": "Feature", "properties": { "Name": "Coop Prilly Centre", "Description": "" }, "geometry": { "type": "Point", "coordinates": [ 6.60612, 46.53421, 0.0 ] } },
{ "type": "Feature", "properties": { "Name": "Coop Yverdon Bel-Air", "Description": "" }, "geometry": { "type": "Point", "coordinates": [ 6.63622, 46.78035, 0.0 ] } },
{ "type": "Feature", "properties": { "Name": "Coop Ecublens", "Description": "" }, "geometry": { "type": "Point", "coordinates": [ 6.5662, 46.5337, 0.0 ] } },
{ "type": "Feature", "properties": { "Name": "Coop Morges Charpentiers", "Description": "" }, "geometry": { "type": "Point", "coordinates": [ 6.49655, 46.50899, 0.0 ] } },
{ "type": "Feature", "properties": { "Name": "Coop Sarnen", "Description": "" }, "geometry": { "type": "Point", "coordinates": [ 8.25121, 46.8973, 0.0 ] } },
{ "type": "Feature", "properties": { "Name": "Coop Willisau", "Description": "" }, "geometry": { "type": "Point", "coordinates": [ 7.99725, 47.12737, 0.0 ] } },
{ "type": "Feature", "properties": { "Name": "Coop Davos", "Description": "" }, "geometry": { "type": "Point", "coordinates": [ 9.82072, 46.79291, 0.0 ] } },
{ "type": "Feature", "properties": { "Name": "Coop Schaffhausen Herblingen", "Description": "" }, "geometry": { "type": "Point", "coordinates": [ 8.66552, 47.72138, 0.0 ] } },
{ "type": "Feature", "properties": { "Name": "Coop Aarau Telli", "Description": "" }, "geometry": { "type": "Point", "coordinates": [ 8.05821, 47.39803, 0.0 ] } },
{ "type": "Feature", "properties": { "Name": "Coop Reinach AG", "Description": "" }, "geometry": { "type": "Point", "coordinates": [ 8.18245, 47.25163, 0.0 ] } },
{ "type": "Feature", "properties": { "Name": "Coop Lenzburg", "Description": "" }, "geometry": { "type": "Point", "coordinates": [ 8.17142, 47.38994, 0.0 ] } },
{ "type": "Feature", "properties": { "Name": "Coop Worb", "Description": "" }, "geometry": { "type": "Point", "coordinates": [ 7.56145, 46.92892, 0.0 ] } },
{ "type": "Feature", "properties": { "Name": "Coop Porrentruy Ajoie", "Description": "" }, "geometry": { "type": "Point", "coordinates": [ 7.07783, 47.41715, 0.0 ] } },
{ "type": "Feature", "properties": { "Name": "Coop Zuerich Wiedikon", "Description": "" }, "geometry": { "type": "Point", "coordinates": [ 8.51594, 47.37073, 0.0 ] } },
{ "type": "Feature", "properties": { "Name": "Coop Dielsdorf", "Description": "" }, "geometry": { "type": "Point", "coordinates": [ 8.46616, 47.48357, 0.0 ] } },
{ "type": "Feature", "properties": { "Name": "Coop Affoltern am Albis", "Description": "" }, "geometry": { "type": "Point", "coordinates": [ 8.44639, 47.27416, 0.0 ] } },
{ "type": "Feature", "properties": { "Name": "Coop Zuerich Letzipark", "Description": "" }, "geometry": { "type": "Point", "coordinates": [ 8.49877, 47.38636, 0.0 ] } },
{ "type": "Feature", "properties": { "Name": "Coop Herzogenbuchsee", "Description": "" }, "geometry": { "type": "Point", "coordinates": [ 7.70329, 47.1858, 0.0 ] } },
{ "type": "Feature", "properties": { "Name": "Coop Sion", "Description": "" }, "geometry": { "type": "Point", "coordinates": [ 7.36275, 46.23127, 0.0 ] } },
{ "type": "Feature", "properties": { "Name": "Coop Luzern Loewencenter", "Description": "" }, "geometry": { "type": "Point", "coordinates": [ 8.31004, 47.05691, 0.0 ] } },
{ "type": "Feature", "properties": { "Name": "Coop St. Moritz Bellevue", "Description": "" }, "geometry": { "type": "Point", "coordinates": [ 9.83506, 46.4909, 0.0 ] } },
{ "type": "Feature", "properties": { "Name": "Coop Heerbrugg", "Description": "" }, "geometry": { "type": "Point", "coordinates": [ 9.6246, 47.40966, 0.0 ] } },
{ "type": "Feature", "properties": { "Name": "Coop Lugano Sud", "Description": "" }, "geometry": { "type": "Point", "coordinates": [ 8.92706, 45.97323, 0.0 ] } },
{ "type": "Feature", "properties": { "Name": "Coop Bern Ryfflihof", "Description": "" }, "geometry": { "type": "Point", "coordinates": [ 7.44204, 46.94955, 0.0 ] } },
{ "type": "Feature", "properties": { "Name": "Coop Onex", "Description": "" }, "geometry": { "type": "Point", "coordinates": [ 6.10416, 46.18755, 0.0 ] } },
{ "type": "Feature", "properties": { "Name": "Coop Lausanne Caroline", "Description": "" },