[{"latitude":47.467094,"longitude":8.293292,"zip":"5400","city":"Baden","address":"Mellingerstrasse  142","name":"Baden - Mellingerstr.","id":1,"type":"M"},{"latitude":47.382861,"longitude":7.947809,"zip":"4654","city":"Lostorf","address":"Hauptstrasse 20","name":"Lostorf","id":2,"type":"M"},{"latitude":47.182848,"longitude":7.561773,"zip":"4562","city":"Biberist","address":"Hauptstrasse 21","name":"Biberist","id":3,"type":"M"},{"latitude":47.449724,"longitude":8.327552,"zip":"5432","city":"Neuenhof","address":"Zürcherstrasse 115","name":"Neuenhof","id":4,"type":"M"},{"latitude":47.548968,"longitude":7.95447,"zip":"4332","city":"Stein AG","address":"Schaffhauserstrasse 61","name":"Stein","id":5,"type":"M"},{"latitude":47.373169,"longitude":8.079311,"zip":"5034","city":"Suhr","address":"Metzgergasse 1","name":"Suhr","id":6,"type":"M"},{"latitude":47.316607,"longitude":7.695541,"zip":"4710","city":"Balsthal","address":"Goldgasse 13","name":"Balsthal","id":7,"type":"M"},{"latitude":47.487605,"longitude":8.292552,"zip":"5415","city":"Nussbaumen b.Baden","address":"Hertensteinstrasse","name":"Nussbaumen - Markthof","id":8,"type":"M"},{"latitude":47.57404,"longitude":8.256079,"zip":"5312","city":"Döttingen","address":"Hauptstrasse 17","name":"Döttingen","id":9,"type":"M"},{"latitude":47.507775,"longitude":8.018889,"zip":"5070","city":"Frick","address":"Hauptstrasse  44","name":"Frick","id":10,"type":"M"},{"latitude":47.197159,"longitude":7.583596,"zip":"4552","city":"Derendingen","address":"Hauptstrasse 22","name":"Derendingen","id":11,"type":"M"},{"latitude":47.373278,"longitude":8.003125,"zip":"5012","city":"Schönenwerd","address":"C.F. Ballystrasse 14","name":"Schönenwerd","id":12,"type":"M"},{"latitude":47.41618,"longitude":8.166348,"zip":"5103","city":"Wildegg","address":"Bruggerstrasse 11 c","name":"Wildegg","id":13,"type":"M"},{"latitude":47.439904,"longitude":8.208537,"zip":"5242","city":"Lupfig","address":"Flachsacherstrasse  17","name":"Lupfig","id":14,"type":"M"},{"latitude":47.436096,"longitude":8.290887,"zip":"5442","city":"Fislisbach","address":"Badenerstrasse 7d","name":"Fislisbach","id":15,"type":"M"},{"latitude":47.203069,"longitude":7.560003,"zip":"4528","city":"Zuchwil","address":"Hauptstrasse 60-62","name":"Zuchwil","id":16,"type":"M"},{"latitude":47.264677,"longitude":7.828999,"zip":"4853","city":"Murgenthal","address":"Fahracker 1","name":"Murgenthal","id":17,"type":"M"},{"latitude":47.30245,"longitude":8.047469,"zip":"5040","city":"Schöftland","address":"Picardiestrasse  3","name":"Schöftland","id":18,"type":"M"},{"latitude":47.362915,"longitude":8.366489,"zip":"8965","city":"Berikon","address":"Bellikerstrasse 13","name":"Berikon - Mutschellen","id":19,"type":"M"},{"latitude":47.293957,"longitude":8.243285,"zip":"5615","city":"Fahrwangen","address":"Hintergasse 12","name":"Fahrwangen","id":20,"type":"M"},{"latitude":47.288723,"longitude":7.718938,"zip":"4702","city":"Oensingen","address":"Mühlefeldstrasse 53","name":"Oensingen","id":21,"type":"M"},{"latitude":47.534699,"longitude":7.72996,"zip":"4303","city":"Kaiseraugst","address":"Liebrütistrasse 39","name":"Kaiseraugst","id":22,"type":"M"},{"latitude":47.3596,"longitude":8.097996,"zip":"5722","city":"Gränichen","address":"Lindenplatz 2","name":"Gränichen","id":23,"type":"M"},{"latitude":47.241004,"longitude":8.186545,"zip":"5737","city":"Menziken","address":"Sagiweg 8","name":"Menziken","id":24,"type":"M"},{"latitude":47.391481,"longitude":8.046139,"zip":"5000","city":"Aarau","address":"Igelweid 18","name":"Aarau - Igelweid","id":25,"type":"MM"},{"latitude":47.476579,"longitude":8.308698,"zip":"5400","city":"Baden","address":"Bahnhofstrasse 40/42","name":"Baden - City","id":26,"type":"MM"},{"latitude":47.312306,"longitude":7.921329,"zip":"4665","city":"Oftringen","address":"Zürichstrasse 2","name":"Oftringen","id":27,"type":"MM"},{"latitude":47.421716,"longitude":8.367657,"zip":"8957","city":"Spreitenbach","address":"Shopping-Center","name":"Spreitenbach","id":28,"type":"MM"},{"latitude":47.291249,"longitude":7.942146,"zip":"4800","city":"Zofingen","address":"Aarburgerstrasse 5","name":"Zofingen","id":29,"type":"MM"},{"latitude":47.206532,"longitude":7.533305,"zip":"4500","city":"Solothurn","address":"Wengistrasse 13","name":"Solothurn","id":30,"type":"MM"},{"latitude":47.349739,"longitude":7.898782,"zip":"4600","city":"Olten","address":"Solothurnerstrasse 21","name":"Olten - Hammer","id":31,"type":"MM"},{"latitude":47.585638,"longitude":8.29612,"zip":"5330","city":"Bad Zurzach","address":"Promenadenstrasse 10","name":"Bad Zurzach","id":32,"type":"MM"},{"latitude":47.346239,"longitude":7.909725,"zip":"4600","city":"Olten","address":"Louis Giroud-Strasse 20","name":"Olten - Sälipark","id":33,"type":"MM"},{"latitude":47.384383,"longitude":8.088877,"zip":"5033","city":"Buchs AG","address":"Wynecenter","name":"Buchs - Wynecenter","id":34,"type":"MMM"},{"latitude":47.42303,"longitude":8.369924,"zip":"8957","city":"Spreitenbach","address":"Shoppi Tivoli","name":"Spreitenbach - Tivoli","id":35,"type":"MMM"},{"latitude":47.482326,"longitude":8.209164,"zip":"5200","city":"Brugg AG","address":"Neumarkt 1","name":"Brugg - Neumarkt","id":36,"type":"MMM"},{"latitude":47.346097,"longitude":7.910312,"zip":"4600","city":"Olten","address":"Louis Giroud-Strasse 25","name":"Olten","id":37,"type":"FM"},{"latitude":47.555625,"longitude":7.581213,"zip":"4051","city":"Basel","address":"Schützenmattstrasse  27","name":"Basel - Schützenmatt","id":38,"type":"M"},{"latitude":47.555669,"longitude":7.573412,"zip":"4055","city":"Basel","address":"Allschwilerstrasse  31","name":"Basel - Allschwiler","id":39,"type":"M"},{"latitude":47.487849,"longitude":7.61197,"zip":"4143","city":"Dornach","address":"Wollmattweg  7","name":"Dornach","id":40,"type":"M"},{"latitude":47.546697,"longitude":7.564192,"zip":"4054","city":"Basel","address":"Neuweilerplatz 7","name":"Basel - Neuweiler","id":41,"type":"M"},{"latitude":47.568282,"longitude":7.579668,"zip":"4056","city":"Basel","address":"Mülhauserstrasse 70-72","name":"Basel - Mülhauser","id":42,"type":"M"},{"latitude":47.532215,"longitude":7.572968,"zip":"4102","city":"Binningen","address":"Gorenmattstrasse 17","name":"Binningen - Gorenmatt","id":43,"type":"MM"},{"latitude":47.560911,"longitude":7.564795,"zip":"4055","city":"Basel","address":"Blotzheimerstrasse 61","name":"Basel - Wasgenring","id":44,"type":"M"},{"latitude":47.509678,"longitude":7.554673,"zip":"4104","city":"Oberwil BL","address":"Mühlemattstrasse  18","name":"Oberwil","id":45,"type":"MM"},{"latitude":47.533596,"longitude":7.633384,"zip":"4132","city":"Muttenz","address":"Lutzertstrasse  40","name":"Muttenz - Lutzert","id":46,"type":"M"},{"latitude":47.559103,"longitude":7.587817,"zip":"4051","city":"Basel","address":"Eisengasse 12","name":"Basel - Märtplatz","id":47,"type":"M"},{"latitude":47.568905,"longitude":7.596584,"zip":"4057","city":"Basel","address":"Efringerstrasse  32","name":"Basel - Efringer","id":49,"type":"MM"},{"latitude":47.492408,"longitude":7.594419,"zip":"4153","city":"Reinach BL","address":"Herrenweg  11","name":"Reinach - Zentrum","id":50,"type":"M"},{"latitude":47.549106,"longitude":7.607244,"zip":"4052","city":"Basel","address":"Hardstrasse 105","name":"Basel - Hardstrasse","id":51,"type":"M"},{"latitude":47.561336,"longitude":7.592048,"zip":"4058","city":"Basel","address":"Ochsengasse  2","name":"Basel - Claramarkt","id":52,"type":"MMM"},{"latitude":47.416804,"longitude":7.076992,"zip":"2900","city":"Porrentruy","address":"Place des Bennelats  6","name":"Porrentruy","id":53,"type":"MM"},{"latitude":47.585003,"longitude":7.651953,"zip":"4125","city":"Riehen","address":"Rössligasse/Webergässchen  8","name":"Riehen - Dorf","id":54,"type":"MM"},{"latitude":47.52604,"longitude":7.656089,"zip":"4132","city":"Muttenz","address":"Rothausstrasse  17","name":"Muttenz - Rothausstrasse","id":55,"type":"MM"},{"latitude":47.27642,"longitude":7.369963,"zip":"2740","city":"Moutier","address":"Rue de l'Ecluse  1","name":"Moutier","id":56,"type":"MM"},{"latitude":47.502002,"longitude":7.596438,"zip":"4153","city":"Reinach BL","address":"Niederbergstrasse  1","name":"Reinach - Mischeli","id":57,"type":"MM"},{"latitude":47.555241,"longitude":7.624255,"zip":"4127","city":"Birsfelden","address":"Chrischonastrasse  2","name":"Birsfelden","id":58,"type":"MM"},{"latitude":47.465837,"longitude":7.850537,"zip":"4460","city":"Gelterkinden","address":"Badweg  2","name":"Gelterkinden","id":59,"type":"MM"},{"latitude":47.502365,"longitude":7.725104,"zip":"4414","city":"Füllinsdorf","address":"Ergolzstrasse  2","name":"Füllinsdorf - Schönthal","id":60,"type":"MM"},{"latitude":47.408092,"longitude":7.54253,"zip":"4226","city":"Breitenbach","address":"Laufenstrasse  4","name":"Breitenbach - Wydehof","id":61,"type":"MM"},{"latitude":47.543263,"longitude":7.592221,"zip":"4053","city":"Basel","address":"Güterstrasse  180","name":"Basel - Gundelitor","id":62,"type":"MM"},{"latitude":47.561987,"longitude":7.572417,"zip":"4055","city":"Basel","address":"Burgfelderstrasse  11","name":"Basel - Burgfelder","id":63,"type":"MM"},{"latitude":47.521342,"longitude":7.606986,"zip":"4142","city":"Münchenstein","address":"Kaspar Pfeiffer-Strasse  2","name":"Münchenstein - Gartenstadt","id":64,"type":"MM"},{"latitude":47.469009,"longitude":7.595665,"zip":"4147","city":"Aesch","address":"Hauptstrasse  95","name":"Aesch","id":65,"type":"MM"},{"latitude":47.54721,"longitude":7.553571,"zip":"4123","city":"Allschwil","address":"Spitzwaldstrasse 215","name":"Allschwil - Paradies","id":66,"type":"MMM"},{"latitude":47.488473,"longitude":7.596318,"zip":"4153","city":"Reinach BL","address":"Sternenhofstrasse  10","name":"Reinach","id":67,"type":"FM"},{"latitude":47.500947,"longitude":7.724976,"zip":"4414","city":"Füllinsdorf","address":"Hammerstrasse  5","name":"Füllinsdorf","id":68,"type":"FM"},{"latitude":47.361085,"longitude":7.356852,"zip":"2800","city":"Delémont","address":"Rue Emile-Boéchat  79","name":"Delémont - MParc","id":69,"type":"FM"},{"latitude":46.954325,"longitude":7.548056,"zip":"3067","city":"Boll","address":"Kernstrasse 9","name":"Boll","id":70,"type":"M"},{"latitude":46.943939,"longitude":7.399299,"zip":"3018","city":"Bern","address":"Bethlehemstrasse  110","name":"Bern - Stöckacker","id":72,"type":"M"},{"latitude":46.949364,"longitude":7.394146,"zip":"3027","city":"Bern","address":"Murtenstrasse 266","name":"Bern - Murtenstr.","id":73,"type":"M"},{"latitude":46.944889,"longitude":7.390192,"zip":"3018","city":"Bern","address":"Mühledorfstrasse 15","name":"Bern - Fellergut","id":74,"type":"M"},{"latitude":46.941928,"longitude":7.45317,"zip":"3005","city":"Bern","address":"Thunstrasse 18","name":"Bern - Kirchenfeld","id":75,"type":"M"},{"latitude":47.115418,"longitude":7.235321,"zip":"2563","city":"Ipsach","address":"Dorfstrasse 1","name":"Ipsach","id":76,"type":"M"},{"latitude":46.744927,"longitude":7.645458,"zip":"3626","city":"Hünibach","address":"Staatsstrasse 134","name":"Hünibach","id":77,"type":"M"},{"latitude":47.128237,"longitude":7.558587,"zip":"3427","city":"Utzenstorf","address":"Hauptstrasse  29","name":"Utzenstorf - Linde","id":79,"type":"M"},{"latitude":46.957914,"longitude":7.453852,"zip":"3014","city":"Bern","address":"Breitenrainplatz 37","name":"Bern - Breitenrain (bis 2013)","id":80,"type":"M"},{"latitude":46.939725,"longitude":7.432077,"zip":"3007","city":"Bern","address":"Seftigenstrasse  1","name":"Bern - Eigerplatz","id":81,"type":"M"},{"latitude":46.665924,"longitude":7.869049,"zip":"3812","city":"Wilderswil","address":"Hauptstrasse","name":"Wilderswil","id":82,"type":"M"},{"latitude":46.744787,"longitude":7.626173,"zip":"3604","city":"Thun","address":"Frutigenstrasse  60","name":"Thun - Dürrenast","id":83,"type":"M"},{"latitude":46.780831,"longitude":7.633604,"zip":"3612","city":"Steffisburg","address":"Oberdorfstrasse 33","name":"Steffisburg","id":84,"type":"M"},{"latitude":46.939621,"longitude":7.481377,"zip":"3015","city":"Bern","address":"Jupiterstrasse  15","name":"Bern - Murifeld","id":85,"type":"M"},{"latitude":46.92612,"longitude":7.432543,"zip":"3095","city":"Spiegel b. Bern","address":"Chasseralstrasse  156","name":"Köniz - Spiegel","id":86,"type":"M"},{"latitude":47.019656,"longitude":7.451124,"zip":"3053","city":"Münchenbuchsee","address":"Bernstrasse 14","name":"Münchenbuchsee - Tanne","id":87,"type":"M"},{"latitude":46.875149,"longitude":7.62123,"zip":"3510","city":"Konolfingen","address":"Thunstrasse 21","name":"Konolfingen","id":88,"type":"M"},{"latitude":46.975118,"longitude":7.437532,"zip":"3047","city":"Bremgarten b. Bern","address":"Kalchackerstrasse  9","name":"Bremgarten  Kalchacker","id":89,"type":"M"},{"latitude":47.058813,"longitude":7.62093,"zip":"3400","city":"Burgdorf","address":"Lyssachstrasse  27","name":"Burgdorf - Neumarkt","id":90,"type":"MM"},{"latitude":46.947279,"longitude":7.383292,"zip":"3027","city":"Bern","address":"Riedbachstrasse  10","name":"Bern - Bethlehem","id":91,"type":"MM"},{"latitude":46.945154,"longitude":7.472768,"zip":"3006","city":"Bern","address":"Giacomettistrasse  15","name":"Bern - Freudenberg","id":92,"type":"MM"},{"latitude":46.965616,"longitude":7.463965,"zip":"3014","city":"Bern","address":"Wankdorffeldstrasse  71","name":"Bern - Winkelried","id":93,"type":"MM"},{"latitude":46.759824,"longitude":7.626576,"zip":"3600","city":"Thun","address":"Bälliz  2","name":"Thun - Bälliz","id":94,"type":"MM"},{"latitude":46.872944,"longitude":7.560149,"zip":"3110","city":"Münsingen","address":"Bahnhofplatz 5","name":"Münsingen","id":95,"type":"MM"},{"latitude":47.126093,"longitude":7.246328,"zip":"2560","city":"Nidau","address":"Lyssstrasse 15","name":"Nidau","id":96,"type":"MM"},{"latitude":46.922254,"longitude":7.459717,"zip":"3084","city":"Wabern","address":"Seftigenstrasse  368","name":"Wabern - Chly Wabere","id":97,"type":"MM"},{"latitude":46.955251,"longitude":7.433651,"zip":"3012","city":"Bern","address":"Zähringerstrasse 43","name":"Bern - Zähringer","id":98,"type":"MM"},{"latitude":46.895626,"longitude":7.495873,"zip":"3123","city":"Belp","address":"Neumattstrasse 4","name":"Belp","id":99,"type":"MM"},{"latitude":46.966514,"longitude":7.376662,"zip":"3032","city":"Hinterkappelen","address":"Kappelenring 2","name":"Hinterkappelen - Chappelemärit","id":100,"type":"MM"},{"latitude":47.131755,"longitude":7.252399,"zip":"2503","city":"Biel/Bienne","address":"Brüggstrasse 5","name":"Biel - Madretsch","id":101,"type":"MM"},{"latitude":47.113461,"longitude":7.840194,"zip":"4950","city":"Huttwil","address":"Bernstrasse 6","name":"Huttwil","id":102,"type":"MM"},{"latitude":46.553729,"longitude":7.371287,"zip":"3770","city":"Zweisimmen","address":"Saanenstrasse","name":"Zweisimmen","id":103,"type":"MM"},{"latitude":46.956678,"longitude":7.495993,"zip":"3072","city":"Ostermundigen","address":"Bernstrasse 114","name":"Ostermundigen","id":104,"type":"MM"},{"latitude":46.947182,"longitude":7.43797,"zip":"3011","city":"Bern","address":"Bubenbergplatz  8","name":"Bern - Bubenberg","id":105,"type":"MM"},{"latitude":46.938969,"longitude":7.390065,"zip":"3018","city":"Bern","address":"Bottigenstrasse  7","name":"Bern - Bachmätteli","id":106,"type":"MM"},{"latitude":46.939237,"longitude":7.787453,"zip":"3550","city":"Langnau i. E.","address":"Schlossstrasse  1a","name":"Langnau i.E.","id":107,"type":"MM"},{"latitude":46.728007,"longitude":8.18481,"zip":"3860","city":"Meiringen","address":"Bahnhofstrasse 1","name":"Meiringen","id":108,"type":"MM"},{"latitude":47.016034,"longitude":7.493141,"zip":"3321","city":"Schönbühl EKZ","address":"Industriestrasse 10","name":"Schönbühl - Shoppyland","id":109,"type":"MMM"},{"latitude":46.948013,"longitude":7.44485,"zip":"3011","city":"Bern","address":"Marktgasse 46","name":"Bern - Marktgasse","id":110,"type":"MMM"},{"latitude":46.744165,"longitude":7.61389,"zip":"3604","city":"Thun","address":"Talackerstrasse 62","name":"Thun - Oberland","id":111,"type":"MMM"},{"latitude":47.119407,"longitude":7.267002,"zip":"2555","city":"Brügg b. Biel","address":"Erlenstrasse  40","name":"Brügg - Centre Brügg","id":112,"type":"MMM"},{"latitude":47.059733,"longitude":7.624987,"zip":"3400","city":"Burgdorf","address":"Postgasse 1","name":"Burgdorf  Fachmarkt","id":113,"type":"FM"},{"latitude":46.191159,"longitude":6.137657,"zip":"1227","city":"Carouge GE","address":"Rue Gustave-Revilliod  4","name":"Carouge - Acacias","id":114,"type":"MM"},{"latitude":46.218696,"longitude":6.11268,"zip":"1211","city":"Genève 28","address":"Avenue Louis-Casaï  27","name":"Genève - Balexert","id":115,"type":"MMM"},{"latitude":46.1832,"longitude":6.140798,"zip":"1227","city":"Carouge GE","address":"Rue du Marché  16","name":"Carouge","id":116,"type":"M"},{"latitude":46.196047,"longitude":6.194351,"zip":"1225","city":"Chêne-Bourg","address":"Avenue de Bel-Air  12","name":"Chêne-Bourg","id":117,"type":"MM"},{"latitude":46.200846,"longitude":6.139855,"zip":"1204","city":"Genève","address":"Place du Cirque  2","name":"Genève - Cirque","id":118,"type":"M"},{"latitude":46.203645,"longitude":6.146247,"zip":"1204","city":"Genève","address":"Place de la Fusterie  7","name":"Genève - Fusterie","id":119,"type":"M"},{"latitude":46.416773,"longitude":6.275694,"zip":"1196","city":"Gland","address":"Rue de Mauverney  22","name":"Gland","id":120,"type":"MM"},{"latitude":46.200506,"longitude":6.130657,"zip":"1205","city":"Genève","address":"Boulevard Carl-Vogt  6","name":"Genève - Jonction","id":121,"type":"MM"},{"latitude":46.203162,"longitude":6.096411,"zip":"1219","city":"Le Lignon","address":"Place du Lignon  29 A","name":"Le Lignon","id":122,"type":"MM"},{"latitude":46.231635,"longitude":6.082652,"zip":"1217","city":"Meyrin","address":"Avenue de Feuillasse  24","name":"Meyrin","id":123,"type":"MM"},{"latitude":46.212296,"longitude":6.149774,"zip":"1201","city":"Genève","address":"Rue des Paquis  41","name":"Genève - Navigation","id":124,"type":"MM"},{"latitude":46.211088,"longitude":6.14494,"zip":"1201","city":"Genève","address":"Rue de Lausanne 18-20","name":"Genève - Les Cygnes","id":125,"type":"MM"},{"latitude":46.188234,"longitude":6.110137,"zip":"1213","city":"Petit-Lancy","address":"Rue des Bossons 78-80","name":"Lancy-Onex","id":126,"type":"MM"},{"latitude":46.174687,"longitude":6.122406,"zip":"1212","city":"Grand-Lancy","address":"Av. des Communes-Réunies 52","name":"Grand-Lancy - Palettes","id":127,"type":"MM"},{"latitude":46.191635,"longitude":6.163981,"zip":"1206","city":"Genève","address":"Route de Florissant  86","name":"Genève - Rieu","id":128,"type":"MM"},{"latitude":46.213123,"longitude":6.129697,"zip":"1202","city":"Genève","address":"Rue de la Servette  93","name":"Genève - Servette-Ecole","id":129,"type":"MM"},{"latitude":46.192757,"longitude":6.199725,"zip":"1226","city":"Thônex","address":"Rue de Genève  92","name":"Thônex","id":130,"type":"MM"},{"latitude":46.224095,"longitude":6.125867,"zip":"1209","city":"Genève","address":"Chemin de la Tourelle 2-4","name":"Genève - Tourelle","id":131,"type":"M"},{"latitude":46.215946,"longitude":6.139223,"zip":"1202","city":"Genève","address":"Rue du Vidollet  5","name":"Genève - Vidollet","id":132,"type":"M"},{"latitude":46.200487,"longitude":6.158864,"zip":"1207","city":"Genève","address":"Rue de la Terrassière 29","name":"Genève - Villereuse","id":133,"type":"MM"},{"latitude":46.279621,"longitude":6.164583,"zip":"1290","city":"Versoix","address":"Avenue Adrien Lachenal  7","name":"Versoix","id":134,"type":"MM"},{"latitude":46.182506,"longitude":6.133227,"zip":"1227","city":"Carouge GE","address":"Avenue Vibert  29","name":"Carouge - Vibert","id":135,"type":"MM"},{"latitude":46.195914,"longitude":6.196326,"zip":"1225","city":"Chêne-Bourg","address":"Place de la Gare  2","name":"Chêne-Bourg (marché specialisé)","id":136,"type":"FM"},{"latitude":46.202493,"longitude":6.151228,"zip":"1204","city":"Genève","address":"Rue du Prince  5","name":"Genève - Café  Ecole-Club","id":137,"type":"MR"},{"latitude":46.250206,"longitude":7.016028,"zip":"1880","city":"Bex","address":"Rue Centrale  43-45","name":"Bex","id":138,"type":"M"},{"latitude":46.512166,"longitude":6.626116,"zip":"1007","city":"Lausanne","address":"Avenue de la Harpe  17","name":"Lausanne - La Harpe","id":139,"type":"M"},{"latitude":46.71144,"longitude":6.377764,"zip":"1337","city":"Vallorbe","address":"Grand-Rue  23","name":"Vallorbe","id":140,"type":"M"},{"latitude":46.532937,"longitude":6.607767,"zip":"1008","city":"Prilly","address":"Route de Cossonay  9","name":"Prilly","id":141,"type":"M"},{"latitude":46.537335,"longitude":6.63338,"zip":"1018","city":"Lausanne","address":"Route Aloys-Fauquez  97","name":"Lausanne - Bellevaux","id":142,"type":"M"},{"latitude":46.452266,"longitude":6.857938,"zip":"1814","city":"La Tour-de-Peilz","address":"Place des Anciens-Fossés 10B","name":"La Tour-de-Peilz","id":143,"type":"M"},{"latitude":46.530189,"longitude":6.628347,"zip":"1018","city":"Lausanne","address":"Avenue Jomini  11","name":"Lausanne - Pontaise","id":144,"type":"M"},{"latitude":46.527429,"longitude":6.615977,"zip":"1004","city":"Lausanne","address":"Avenue d'Echallens  63","name":"Lausanne - Saint-Paul","id":145,"type":"M"},{"latitude":46.547273,"longitude":6.553111,"zip":"1030","city":"Bussigny-Lausanne","address":"Rue de la Gare  2","name":"Bussigny","id":146,"type":"MM"},{"latitude":46.669273,"longitude":6.80057,"zip":"1510","city":"Moudon","address":"Avenue de Préville","name":"Moudon","id":147,"type":"MM"},{"latitude":46.819895,"longitude":6.939635,"zip":"1530","city":"Payerne","address":"Rue du Temple  19","name":"Payerne","id":148,"type":"MM"},{"latitude":46.464385,"longitude":6.33399,"zip":"1180","city":"Rolle","address":"Rte de la Vallée 4","name":"Rolle","id":149,"type":"MM"},{"latitude":46.527046,"longitude":6.651537,"zip":"1012","city":"Lausanne","address":"Avenue de la Vallonnette  2","name":"Lausanne - Chailly","id":150,"type":"MM"},{"latitude":46.531184,"longitude":6.618485,"zip":"1004","city":"Lausanne","address":"Avenue des Bergières  50","name":"Lausanne - Bergières","id":151,"type":"MM"},{"latitude":46.514599,"longitude":6.632732,"zip":"1006","city":"Lausanne","address":"Avenue d'Ouchy  11","name":"Lausanne - Closelet","id":152,"type":"MM"},{"latitude":46.538274,"longitude":6.580897,"zip":"1020","city":"Renens VD","address":"Rue de la Mèbre  9","name":"Renens - Métropole","id":153,"type":"MM"},{"latitude":46.511405,"longitude":6.659687,"zip":"1009","city":"Pully","address":"Chemin du Pré-de-la-Tour  3","name":"Pully","id":154,"type":"MM"},{"latitude":46.78097,"longitude":6.635769,"zip":"1400","city":"Yverdon-les-Bains","address":"Rue de Neuchâtel  3","name":"Yverdon - Métropole","id":155,"type":"MMM"},{"latitude":46.522567,"longitude":6.626686,"zip":"1003","city":"Lausanne","address":"Rue des Terreaux  23","name":"Lausanne - Métropole","id":156,"type":"MMM"},{"latitude":46.558783,"longitude":6.613027,"zip":"1032","city":"Romanel-s-Lausanne","address":"En Félezin","name":"Romanel-sur-Lausanne","id":157,"type":"MMM"},{"latitude":46.465322,"longitude":6.842877,"zip":"1800","city":"Vevey","address":"Rue des Moulins  11","name":"Vevey - Les Moulins","id":158,"type":"FM"},{"latitude":47.041818,"longitude":8.317709,"zip":"6005","city":"Luzern","address":"Tribschenstrasse  66","name":"Luzern - Tribschenstrasse","id":159,"type":"M"},{"latitude":46.984256,"longitude":8.311535,"zip":"6052","city":"Hergiswil NW","address":"Seestrasse 15","name":"Hergiswil NW","id":160,"type":"M"},{"latitude":46.824907,"longitude":8.650075,"zip":"6472","city":"Erstfeld","address":"Gotthardstrasse  144","name":"Erstfeld","id":161,"type":"M"},{"latitude":47.165016,"longitude":8.515164,"zip":"6300","city":"Zug","address":"Grabenstrasse  5","name":"Zug - Grabenstrasse","id":162,"type":"M"},{"latitude":47.054228,"longitude":8.340219,"zip":"6006","city":"Luzern","address":"Kreuzbuchstrasse  53","name":"Luzern - Würzenbach","id":163,"type":"M"},{"latitude":47.089628,"longitude":8.273807,"zip":"6020","city":"Emmenbrücke","address":"Kapfstrasse 3","name":"Emmen - Kapf","id":164,"type":"M"},{"latitude":47.06196,"longitude":8.274057,"zip":"6015","city":"Reussbühl","address":"Ruopigeplatz","name":"Ruopigen-Zentrum Reussbühl","id":165,"type":"M"},{"latitude":47.083239,"longitude":8.44122,"zip":"6403","city":"Küssnacht am Rigi","address":"Siegwartstrasse  11","name":"Küssnacht - Rigi-Märt","id":166,"type":"M"},{"latitude":47.049503,"longitude":8.260176,"zip":"6014","city":"Littau","address":"Fanghöfli  14","name":"Littau - Fanghöfli","id":167,"type":"M"},{"latitude":47.181523,"longitude":8.46151,"zip":"6330","city":"Cham","address":"Zugerstrasse 15-17","name":"Cham - Neudorf","id":168,"type":"M"},{"latitude":46.999663,"longitude":8.608997,"zip":"6440","city":"Brunnen","address":"Bahnhofplatz 19","name":"Brunnen - Bahnhofsmärcht","id":169,"type":"M"},{"latitude":47.03686,"longitude":8.328726,"zip":"6005","city":"Luzern","address":"Langensandstr. 23","name":"Luzern - Schönbühl","id":170,"type":"MM"},{"latitude":47.081038,"longitude":8.341015,"zip":"6030","city":"Ebikon","address":"Zentralstrasse 16","name":"Ebikon - Ladengasse","id":171,"type":"MM"},{"latitude":46.872545,"longitude":8.651302,"zip":"6463","city":"Bürglen UR","address":"Gotthardstrasse  67","name":"Bürglen/Altdorf - Urnertor","id":172,"type":"MM"},{"latitude":47.055804,"longitude":8.070595,"zip":"6110","city":"Wolhusen","address":"Entlebucherstr. 36","name":"Wolhusen - Dorfmärt","id":173,"type":"MM"},{"latitude":47.172996,"longitude":8.517026,"zip":"6300","city":"Zug","address":"Baarerstrasse 22","name":"Zug - Metalli","id":174,"type":"MM"},{"latitude":47.165587,"longitude":8.291659,"zip":"6280","city":"Hochdorf","address":"Hauptstrasse 5","name":"Hochdorf - Seetal-Center","id":175,"type":"MM"},{"latitude":47.172422,"longitude":8.10208,"zip":"6210","city":"Sursee","address":"Bahnhofstrasse 28","name":"Surseepark","id":176,"type":"MMM"},{"latitude":47.191565,"longitude":8.47783,"zip":"6312","city":"Steinhausen","address":"Hinterbergstrasse  40","name":"Steinhausen - Zugerland","id":177,"type":"MMM"},{"latitude":46.964436,"longitude":8.355667,"zip":"6370","city":"Stans","address":"Bitzistrasse  2","name":"Stans - Länderpark","id":178,"type":"MMM"},{"latitude":47.223149,"longitude":7.099751,"zip":"2720","city":"Tramelan","address":"Rue Albert-Gobat  1","name":"Tramelan","id":179,"type":"M"},{"latitude":47.094586,"longitude":6.810568,"zip":"2300","city":"La Chaux-de-Fonds","address":"Place du Tricentenaire  3","name":"La Chaux-de-Fonds - Forges","id":180,"type":"M"},{"latitude":46.864135,"longitude":7.120433,"zip":"1784","city":"Courtepin","address":"Route de l'Industrie 25","name":"Courtepin","id":181,"type":"M"},{"latitude":46.809516,"longitude":7.17236,"zip":"1700","city":"Fribourg","address":"Chemin Cité-des-Jardins 13A","name":"Fribourg - Schoenberg","id":182,"type":"M"},{"latitude":46.800345,"longitude":7.144456,"zip":"1700","city":"Fribourg","address":"Chemin de Béthléem 7","name":"Fribourg - Beauregard","id":183,"type":"M"},{"latitude":47.15126,"longitude":6.995277,"zip":"2610","city":"St-Imier","address":"Rue Baptiste-Savoye  62","name":"St-Imier","id":184,"type":"M"},{"latitude":46.890121,"longitude":7.316394,"zip":"3175","city":"Flamatt","address":"Bernstrasse 25","name":"Flamatt","id":185,"type":"M"},{"latitude":46.949868,"longitude":6.83777,"zip":"2017","city":"Boudry","address":"Rue Oscar-Huguenin  10","name":"Boudry","id":186,"type":"M"},{"latitude":47.219053,"longitude":7.197883,"zip":"2710","city":"Tavannes","address":"Rue de Pierre-Pertuis 11","name":"Tavannes","id":187,"type":"M"},{"latitude":47.06162,"longitude":7.088601,"zip":"2520","city":"La Neuveville","address":"Chemin des Vergers  20","name":"La Neuveville","id":188,"type":"M"},{"latitude":46.991727,"longitude":6.929817,"zip":"2000","city":"Neuchâtel","address":"Rue de l'Hôpital  12","name":"Neuchâtel - Hôpital","id":189,"type":"MM"},{"latitude":47.003775,"longitude":6.955377,"zip":"2000","city":"Neuchâtel","address":"Avenue des Portes-Rouges 46","name":"Neuchâtel - Portes-Rouges","id":190,"type":"M"},{"latitude":47.10001,"longitude":6.827194,"zip":"2300","city":"La Chaux-de-Fonds","address":"Rue Daniel-Jeanrichard  23","name":"La Chaux-de-Fonds - Métropole Centre","id":191,"type":"MMM"},{"latitude":46.92975,"longitude":7.122712,"zip":"3280","city":"Murten","address":"Bernstrasse 18","name":"Murten/Morat","id":192,"type":"MM"},{"latitude":46.985645,"longitude":6.889546,"zip":"2034","city":"Peseux","address":"Rue Jämes-Paris  4","name":"Peseux","id":193,"type":"MM"},{"latitude":46.622945,"longitude":7.057473,"zip":"1630","city":"Bulle","address":"Rue Château d'En-Bas  2","name":"Bulle - Gruyère-Centre","id":194,"type":"MM"},{"latitude":47.055842,"longitude":6.747752,"zip":"2400","city":"Le Locle","address":"Rue Bournot 35","name":"Le Locle","id":195,"type":"MM"},{"latitude":46.690191,"longitude":6.911687,"zip":"1680","city":"Romont FR","address":"Rue Paul-Bondallaz 9","name":"Romont","id":196,"type":"MM"},{"latitude":46.786969,"longitude":7.078281,"zip":"1754","city":"Avry-sur-Matran","address":"Avry-Centre","name":"Avry-Centre","id":197,"type":"MMM"},{"latitude":47.411724,"longitude":9.250435,"zip":"9200","city":"Gossau SG","address":"Stadtbühlstrasse  12","name":"Gossau - Stadtbühlpark","id":198,"type":"M"},{"latitude":47.373992,"longitude":9.199661,"zip":"9113","city":"Degersheim","address":"Kirchweg 2","name":"Degersheim","id":199,"type":"M"},{"latitude":47.43871,"longitude":9.536151,"zip":"9410","city":"Heiden","address":"Sonnentalstrasse 2","name":"Heiden","id":200,"type":"M"},{"latitude":47.41939,"longitude":9.354246,"zip":"9000","city":"St. Gallen","address":"Zürcherstrasse  34","name":"St. Gallen - Lachen","id":201,"type":"M"},{"latitude":47.473838,"longitude":9.495068,"zip":"9400","city":"Rorschach","address":"Promenadenstrasse 83","name":"Rorschach - Promenade","id":202,"type":"M"},{"latitude":46.807088,"longitude":9.838291,"zip":"7260","city":"Davos Dorf","address":"Promenade 146","name":"Davos-Dorf","id":203,"type":"M"},{"latitude":46.857552,"longitude":9.52074,"zip":"7000","city":"Chur","address":"Ringstrasse  91","name":"Chur - Ringstrasse","id":204,"type":"M"},{"latitude":47.435016,"longitude":9.386251,"zip":"9008","city":"St. Gallen","address":"Langgasse  20","name":"St. Gallen - Langgasse","id":205,"type":"M"},{"latitude":47.436961,"longitude":9.405017,"zip":"9016","city":"St. Gallen","address":"Rorschacherstrasse  249","name":"St. Gallen - Neudorf","id":206,"type":"M"},{"latitude":47.122787,"longitude":9.313752,"zip":"8880","city":"Walenstadt","address":"Bahnhofstrasse  18","name":"Walenstadt","id":207,"type":"M"},{"latitude":47.423916,"longitude":9.37993,"zip":"9000","city":"St. Gallen","address":"Moosbruggstrasse 1","name":"St. Gallen - Spisertor","id":208,"type":"M"},{"latitude":47.492031,"longitude":9.240866,"zip":"9220","city":"Bischofszell","address":"Poststrasse  16","name":"Bischofszell","id":209,"type":"M"},{"latitude":47.40806,"longitude":9.334206,"zip":"9014","city":"St. Gallen","address":"Straubenzellstrasse  23","name":"St. Gallen - Bruggen","id":210,"type":"M"},{"latitude":47.26623,"longitude":9.119778,"zip":"9642","city":"Ebnat-Kappel","address":"Kapplerstrasse  16","name":"Ebnat-Kappel","id":211,"type":"M"},{"latitude":47.474564,"longitude":9.46778,"zip":"9403","city":"Goldach","address":"Ulrich-Rösch-Strasse  5","name":"Goldach","id":212,"type":"M"},{"latitude":47.390489,"longitude":9.390848,"zip":"9053","city":"Teufen AR","address":"Speicherstrasse  8","name":"Teufen","id":213,"type":"M"},{"latitude":47.425341,"longitude":9.374337,"zip":"9000","city":"St. Gallen","address":"Oberer Graben 3","name":"St. Gallen - Union","id":214,"type":"M"},{"latitude":47.459935,"longitude":9.389063,"zip":"9303","city":"Wittenbach","address":"Romanshorner Strasse 30","name":"Wittenbach","id":215,"type":"M"},{"latitude":46.846356,"longitude":9.510533,"zip":"7000","city":"Chur","address":"Kalchbühlstrasse  16","name":"Chur  -  Kalchbühl","id":216,"type":"FM"},{"latitude":47.546524,"longitude":9.298176,"zip":"8580","city":"Amriswil","address":"Kirchstrasse  9","name":"Amriswil","id":217,"type":"MM"},{"latitude":47.334578,"longitude":9.407162,"zip":"9050","city":"Appenzell","address":"Unteres Ziel","name":"Appenzell ","id":218,"type":"MM"},{"latitude":47.5474,"longitude":9.297809,"zip":"8580","city":"Amriswil","address":"Kirchstrasse 11","name":"Amriswil  - Amriville","id":219,"type":"FM"},{"latitude":46.845752,"longitude":9.51251,"zip":"7000","city":"Chur","address":"Pargherastrasse  1-3","name":"Chur - Calandapark","id":220,"type":"MM"},{"latitude":46.85165,"longitude":9.528056,"zip":"7000","city":"Chur","address":"Gäuggelistrasse 28","name":"Chur - Gäuggeli","id":221,"type":"MM"},{"latitude":46.967541,"longitude":9.561876,"zip":"7302","city":"Landquart","address":"Bahnhofstrasse 54","name":"Landquart","id":222,"type":"MM"},{"latitude":46.793305,"longitude":9.821252,"zip":"7270","city":"Davos Platz","address":"Promenade 40","name":"Davos - Rätia","id":223,"type":"MM"},{"latitude":47.385967,"longitude":9.283233,"zip":"9100","city":"Herisau","address":"Kasernenstrasse 18","name":"Herisau","id":224,"type":"MM"},{"latitude":47.641559,"longitude":9.19602,"zip":"8280","city":"Kreuzlingen","address":"Bleichestrasse  15","name":"Kreuzlingen - Seepark","id":225,"type":"MM"},{"latitude":47.5644,"longitude":9.367494,"zip":"8590","city":"Romanshorn","address":"Bahnhofstrasse 54a","name":"Romanshorn - Hubzelg","id":226,"type":"MM"},{"latitude":47.435578,"longitude":9.3916,"zip":"9008","city":"St. Gallen","address":"Bachstrasse 29","name":"St. Gallen - St. Fiden","id":227,"type":"MM"},{"latitude":47.437845,"longitude":9.132928,"zip":"9240","city":"Uzwil","address":"Neudorfstrasse  2","name":"Uzwil - Steinacker","id":228,"type":"MM"},{"latitude":47.2982,"longitude":9.088177,"zip":"9630","city":"Wattwil","address":"Bahnhofstrasse 19","name":"Wattwil","id":229,"type":"MM"},{"latitude":47.406563,"longitude":9.631045,"zip":"9443","city":"Widnau","address":"Bahnhofstrasse  2","name":"Widnau - Rhydorf-Center","id":230,"type":"MM"},{"latitude":47.462589,"longitude":9.042479,"zip":"9500","city":"Wil SG","address":"Obere Bahnhofstrasse 5","name":"Wil  SG","id":231,"type":"MM"},{"latitude":46.694247,"longitude":9.439871,"zip":"7430","city":"Thusis","address":"Im Park","name":"Thusis - im Park","id":232,"type":"MM"},{"latitude":46.77365,"longitude":9.209835,"zip":"7130","city":"Ilanz","address":"Glennerstrasse  30","name":"Ilanz - Center Mundaun","id":233,"type":"MM"},{"latitude":47.041731,"longitude":9.431278,"zip":"8879","city":"Pizolpark (Mels)","address":"Einkaufszentrum","name":"Mels - Pizolpark","id":234,"type":"MMM"},{"latitude":47.449836,"longitude":9.651425,"zip":"9430","city":"St. Margrethen SG","address":"Einkaufszentrum","name":"St. Margrethen - Rheinpark","id":235,"type":"MMM"},{"latitude":47.421896,"longitude":9.370563,"zip":"9000","city":"St. Gallen","address":"St. Leonhardstrasse  35","name":"St. Gallen - Neumarkt","id":236,"type":"MMM"},{"latitude":47.417169,"longitude":9.316486,"zip":"9030","city":"Abtwil SG","address":"Wiesenbachstrasse  7","name":"Abtwil - Säntispark","id":237,"type":"MM"},{"latitude":46.353336,"longitude":8.97216,"zip":"6710","city":"Biasca","address":"Via General Guisan 26","name":"Biasca","id":238,"type":"M"},{"latitude":46.016244,"longitude":8.941347,"zip":"6942","city":"Savosa","address":"Via San Gottardo  150","name":"Crocifisso di Savosa","id":239,"type":"M"},{"latitude":46.175074,"longitude":8.81141,"zip":"6648","city":"Minusio","address":"Via S.Gottardo 56","name":"Minusio - Centro Borenco","id":240,"type":"M"},{"latitude":45.990725,"longitude":8.945813,"zip":"6902","city":"Lugano 2 Paradiso Caselle","address":"Via Geretta","name":"Lugano - Paradiso","id":241,"type":"M"},{"latitude":45.848315,"longitude":8.936457,"zip":"6855","city":"Stabio","address":"Via Giulia 43","name":"Stabio","id":242,"type":"M"},{"latitude":46.066556,"longitude":8.966555,"zip":"6950","city":"Tesserete","address":"Piazza Giuseppe Motta","name":"Tesserete","id":243,"type":"M"},{"latitude":46.478818,"longitude":8.797702,"zip":"6760","city":"Faido","address":"Piazza Stefano Franscini","name":"Faido","id":244,"type":"M"},{"latitude":46.018137,"longitude":8.958667,"zip":"6900","city":"Lugano","address":"Via Monte Boglia 5","name":"Lugano - Molino Nuovo","id":245,"type":"M"},{"latitude":46.00952,"longitude":8.939046,"zip":"6900","city":"Massagno","address":"Via Besso 74","name":"Massagno - Radio","id":246,"type":"M"},{"latitude":46.168251,"longitude":8.782438,"zip":"6604","city":"Locarno","address":"Via A. Franzoni 43","name":"Locarno - Solduno","id":247,"type":"M"},{"latitude":46.177969,"longitude":9.013625,"zip":"6512","city":"Giubiasco","address":"Via Bellinzona  33","name":"Giubiasco - Alle Bolle","id":248,"type":"M"},{"latitude":46.193546,"longitude":9.024349,"zip":"6500","city":"Bellinzona","address":"Piazza Rinaldo Simen 8","name":"Bellinzona - Piazza del Sole","id":249,"type":"MM"},{"latitude":46.165429,"longitude":8.795745,"zip":"6600","city":"Locarno","address":"Via Stefano Franscini 31","name":"Locarno - Mercato","id":250,"type":"MM"},{"latitude":45.845244,"longitude":9.016356,"zip":"6834","city":"Morbio Inferiore","address":"Viale Serfontana","name":"Morbio Inferiore - Serfontana","id":251,"type":"MMM"},{"latitude":46.006088,"longitude":8.962435,"zip":"6900","city":"Lugano","address":"Viale Castagnola","name":"Lugano - Cassarate-Lago","id":252,"type":"MM"},{"latitude":46.006773,"longitude":8.951763,"zip":"6900","city":"Lugano","address":"Via Pretorio 15","name":"Lugano - Città","id":253,"type":"MMM"},{"latitude":46.153594,"longitude":8.961875,"zip":"6592","city":"S. Antonino","address":"Via Serrai 5","name":"Centro S.Antonino","id":254,"type":"MMM"},{"latitude":46.235595,"longitude":7.359567,"zip":"1950","city":"Sion","address":"Avenue Ritz  31","name":"Sion - Le Ritz","id":255,"type":"M"},{"latitude":46.309191,"longitude":7.473255,"zip":"3963","city":"Crans-Montana","address":"Route du Rawyl 32","name":"Crans-Montana","id":256,"type":"M"},{"latitude":46.021447,"longitude":7.748115,"zip":"3920","city":"Zermatt","address":"Hofmatte","name":"Zermatt","id":257,"type":"MM"},{"latitude":46.292097,"longitude":7.529181,"zip":"3960","city":"Sierre","address":"Avenue Général Guisan","name":"Sierre","id":258,"type":"MM"},{"latitude":46.25329,"longitude":6.952256,"zip":"1870","city":"Monthey","address":"Avenue de la Gare","name":"Monthey - La Verrerie","id":259,"type":"MMM"},{"latitude":46.318162,"longitude":7.989376,"zip":"3900","city":"Brig","address":"Belalpstrasse 1","name":"Brig","id":260,"type":"MM"},{"latitude":46.228352,"longitude":7.356239,"zip":"1950","city":"Sion","address":"Avenue de France 14-20","name":"Sion - Métropole","id":261,"type":"MMM"},{"latitude":47.499401,"longitude":8.730932,"zip":"8400","city":"Winterthur","address":"Unterer Graben  33","name":"Winterthur - Obertor","id":263,"type":"M"},{"latitude":47.506616,"longitude":8.711997,"zip":"8400","city":"Winterthur","address":"Wülflingerstrasse  71","name":"Winterthur - Blumenau","id":264,"type":"M"},{"latitude":47.68571,"longitude":8.752137,"zip":"8253","city":"Diessenhofen","address":"Bahnhofstrasse  15","name":"Diessenhofen","id":265,"type":"M"},{"latitude":47.559458,"longitude":8.900737,"zip":"8500","city":"Frauenfeld","address":"Zürcherstrasse  227","name":"Frauenfeld - Zeughausstrasse","id":266,"type":"M"},{"latitude":47.300075,"longitude":8.844607,"zip":"8340","city":"Hinwil","address":"Bachtelstrasse  12","name":"Hinwil","id":267,"type":"M"},{"latitude":47.706225,"longitude":8.620007,"zip":"8200","city":"Schaffhausen","address":"Hohlenbaumstrasse  79","name":"Schaffhausen - Breite","id":268,"type":"M"},{"latitude":47.510597,"longitude":8.69373,"zip":"8408","city":"Winterthur","address":"Lindenplatz 1","name":"Winterthur - Wülflingen","id":269,"type":"M"},{"latitude":47.748563,"longitude":8.706781,"zip":"8240","city":"Thayngen","address":"Biberstrasse  30","name":"Thayngen","id":270,"type":"M"},{"latitude":47.535283,"longitude":8.730315,"zip":"8472","city":"Seuzach","address":"Winterthurerstrasse  5","name":"Seuzach","id":271,"type":"M"},{"latitude":47.668084,"longitude":8.982199,"zip":"8266","city":"Steckborn","address":"Im Feldbach 1b","name":"Steckborn","id":272,"type":"M"},{"latitude":47.690133,"longitude":8.504537,"zip":"8213","city":"Neunkirch","address":"Löhningerstrasse  4","name":"Neunkirch","id":273,"type":"M"},{"latitude":47.275298,"longitude":8.913322,"zip":"8636","city":"Wald ZH","address":"Bahnhofstrasse","name":"Wald  ZH","id":274,"type":"M"},{"latitude":47.489849,"longitude":8.899399,"zip":"8355","city":"Aadorf","address":"Bahnhofstrasse  2","name":"Aadorf","id":275,"type":"M"},{"latitude":47.601748,"longitude":8.688732,"zip":"8451","city":"Kleinandelfingen","address":"Weinlandstrasse 4","name":"Andelfingen","id":276,"type":"M"},{"latitude":47.385295,"longitude":8.75126,"zip":"8320","city":"Fehraltorf","address":"Bahnhofstrasse 29","name":"Fehraltorf","id":277,"type":"M"},{"latitude":47.25774,"longitude":8.849179,"zip":"8630","city":"Rüti ZH","address":"Bandwiesstrasse 6","name":"Rüti  ZH","id":278,"type":"MM"},{"latitude":47.510981,"longitude":8.758761,"zip":"8404","city":"Winterthur","address":"Guggenbühlstrasse  1","name":"Winterthur - Oberwinterthur","id":279,"type":"MM"},{"latitude":47.485337,"longitude":8.762355,"zip":"8405","city":"Winterthur","address":"Hinterdorfstrasse  40","name":"Winterthur - Seen","id":280,"type":"MM"},{"latitude":47.427859,"longitude":8.685748,"zip":"8307","city":"Effretikon","address":"Märtplatz  5","name":"Effretikon - Effi-Märt","id":281,"type":"MM"},{"latitude":47.698724,"longitude":8.634119,"zip":"8200","city":"Schaffhausen","address":"Bahnhofstrasse  56/58","name":"Schaffhausen - Vorstadt","id":282,"type":"MM"},{"latitude":47.509867,"longitude":8.591747,"zip":"8424","city":"Embrach","address":"Bülacherstrasse  17","name":"Embrach","id":283,"type":"MM"},{"latitude":47.556782,"longitude":8.896453,"zip":"8500","city":"Frauenfeld","address":"Bahnhofplatz  70-72","name":"Frauenfeld - Passage","id":284,"type":"MM"},{"latitude":47.720024,"longitude":8.663978,"zip":"8207","city":"Schaffhausen","address":"Stüdliackerstrasse  4","name":"Schaffhausen - Herblinger-Markt","id":285,"type":"MMM"},{"latitude":47.327462,"longitude":8.799769,"zip":"8620","city":"Wetzikon ZH","address":"Bahnhofstrasse  151","name":"Wetzikon  - Züri-Oberland-Märt","id":286,"type":"MMM"},{"latitude":47.498837,"longitude":8.720404,"zip":"8400","city":"Winterthur","address":"Strickerstrasse  3","name":"Winterthur - Neuwiesen","id":287,"type":"MMM"},{"latitude":47.358847,"longitude":8.585611,"zip":"8053","city":"Zürich","address":"Witikonerstrasse  293","name":"Zürich - Witikon-Zentrum","id":288,"type":"MM"},{"latitude":47.390191,"longitude":8.507743,"zip":"8005","city":"Zürich","address":"Pfingstweidstrasse  101","name":"Zürich - Herdern","id":289,"type":"SPEZ"},{"latitude":47.419975,"longitude":8.508261,"zip":"8046","city":"Zürich","address":"Jonas-Furrer-Strasse  21","name":"Zürich - Affoltern","id":290,"type":"MM"},{"latitude":47.369755,"longitude":8.50853,"zip":"8055","city":"Zürich","address":"Birmensdorferstrasse 320","name":"Zürich - Wiedikon  M-Märt","id":291,"type":"MM"},{"latitude":47.410317,"longitude":8.542705,"zip":"8050","city":"Zürich","address":"Hofwiesenstrasse  350-354","name":"Zürich - Oerlikon Neumarkt","id":292,"type":"MM"},{"latitude":47.384989,"longitude":8.531279,"zip":"8005","city":"Zürich","address":"Limmatstrasse  152","name":"Zürich - Limmatplatz","id":293,"type":"MM"},{"latitude":47.357994,"longitude":8.518078,"zip":"8045","city":"Zürich","address":"Giesshübelstrasse  65","name":"Zürich - Brunaupark","id":294,"type":"MM"},{"latitude":47.395908,"longitude":8.437164,"zip":"8952","city":"Schlieren","address":"Badenerstrasse  57","name":"Schlieren - Kesslerplatz","id":295,"type":"M"},{"latitude":47.398014,"longitude":8.617625,"zip":"8600","city":"Dübendorf","address":"Unterdorfstrasse  7","name":"Dübendorf","id":296,"type":"MM"},{"latitude":47.259873,"longitude":8.597016,"zip":"8810","city":"Horgen","address":"Alte Landstrasse  24","name":"Horgen - Schinzenhof","id":297,"type":"MM"},{"latitude":47.433785,"longitude":8.567431,"zip":"8152","city":"Glattbrugg","address":"Wallisellerstrasse  8","name":"Glattbrugg","id":298,"type":"M"},{"latitude":47.520725,"longitude":8.539918,"zip":"8180","city":"Bülach","address":"Bahnhofstrasse  28","name":"Bülach - Sonnenhof","id":299,"type":"MM"},{"latitude":47.430695,"longitude":8.468574,"zip":"8105","city":"Regensdorf","address":"Zentrum 1","name":"Regensdorf - Zentrum","id":300,"type":"MM"},{"latitude":47.38832,"longitude":8.681721,"zip":"8604","city":"Volketswil","address":"Im Zentrum  18","name":"Volketswil","id":301,"type":"MM"},{"latitude":47.311035,"longitude":8.525279,"zip":"8134","city":"Adliswil","address":"Albisstrasse  10","name":"Adliswil","id":302,"type":"MM"},{"latitude":47.268147,"longitude":8.645442,"zip":"8706","city":"Meilen","address":"Rosengartenstrasse  10","name":"Meilen","id":303,"type":"MM"},{"latitude":47.040424,"longitude":9.070898,"zip":"8750","city":"Glarus","address":"Schweizerhofstrasse  6","name":"Glarus - Zentrum Glärnisch","id":304,"type":"MM"},{"latitude":47.404864,"longitude":8.40188,"zip":"8953","city":"Dietikon","address":"Löwenstrasse 28","name":"Dietikon - Löwenzentrum","id":305,"type":"MM"},{"latitude":47.293942,"longitude":8.564092,"zip":"8800","city":"Thalwil","address":"Alte Landstrasse  130","name":"Thalwil","id":306,"type":"MM"},{"latitude":47.45053,"longitude":8.581955,"zip":"8302","city":"Kloten","address":"Schaffhauserstrasse  122","name":"Kloten","id":307,"type":"MM"},{"latitude":47.128459,"longitude":8.745914,"zip":"8840","city":"Einsiedeln","address":"Eisenbahnstrasse 2","name":"Einsiedeln","id":308,"type":"MM"},{"latitude":47.240425,"longitude":8.72344,"zip":"8712","city":"Stäfa","address":"Goethestrasse  18","name":"Stäfa","id":309,"type":"MM"},{"latitude":47.367998,"longitude":8.534025,"zip":"8002","city":"Zürich","address":"Stockerstrasse  47","name":"Zürich - Stockerstrasse","id":310,"type":"M"},{"latitude":47.329414,"longitude":8.515158,"zip":"8041","city":"Zürich","address":"Ankenweid  10","name":"Zürich - Leimbach","id":311,"type":"M"},{"latitude":47.385972,"longitude":8.548769,"zip":"8006","city":"Zürich","address":"Winterthurerstrasse  2-4","name":"Zürich - Rigiplatz","id":312,"type":"M"},{"latitude":47.358305,"longitude":8.554122,"zip":"8008","city":"Zürich","address":"Seefeldstrasse  111-113","name":"Zürich - Höschgasse","id":313,"type":"M"},{"latitude":47.384648,"longitude":8.422372,"zip":"8902","city":"Urdorf","address":"Birmensdorferstrasse   87","name":"Urdorf - Spitzacker","id":314,"type":"M"},{"latitude":47.367552,"longitude":8.679619,"zip":"8606","city":"Greifensee","address":"Meierwis","name":"Greifensee","id":315,"type":"M"},{"latitude":47.318342,"longitude":8.582115,"zip":"8700","city":"Küsnacht ZH","address":"Zürichstrasse  149","name":"Küsnacht  ZH","id":316,"type":"M"},{"latitude":47.206147,"longitude":8.705377,"zip":"8805","city":"Richterswil","address":"Schützengass  4","name":"Richterswil","id":317,"type":"M"},{"latitude":47.40839,"longitude":8.462979,"zip":"8102","city":"Oberengstringen","address":"Im Zentrum  2","name":"Oberengstringen","id":318,"type":"M"},{"latitude":47.442747,"longitude":8.629115,"zip":"8303","city":"Bassersdorf","address":"Baltenswilerstrasse  1","name":"Bassersdorf","id":319,"type":"M"},{"latitude":47.413257,"longitude":8.591602,"zip":"8304","city":"Wallisellen","address":"Bahnhofstrasse  30","name":"Wallisellen","id":320,"type":"M"},{"latitude":47.290896,"longitude":8.53765,"zip":"8135","city":"Langnau am Albis","address":"Hintere Grundstrasse 2","name":"Langnau a. A.","id":321,"type":"M"},{"latitude":47.418902,"longitude":8.621646,"zip":"8305","city":"Dietlikon","address":"Pappelstrasse  2","name":"Dietlikon - Brunnenwiese","id":322,"type":"M"},{"latitude":47.350732,"longitude":8.643198,"zip":"8123","city":"Ebmatingen","address":"Zürichstrasse  108","name":"Ebmatingen","id":323,"type":"M"},{"latitude":47.337528,"longitude":8.576079,"zip":"8702","city":"Zollikon","address":"Rotfluhstrasse  100","name":"Zollikon - Dorf","id":324,"type":"M"},{"latitude":47.231222,"longitude":8.837398,"zip":"8645","city":"Jona","address":"Molkereistrasse 5","name":"Jona - Stadttor","id":325,"type":"M"},{"latitude":47.479562,"longitude":8.485199,"zip":"8155","city":"Niederhasli","address":"Dorfstrasse  20","name":"Niederhasli","id":326,"type":"M"},{"latitude":47.252393,"longitude":8.769709,"zip":"8634","city":"Hombrechtikon","address":"Rütistrasse 16","name":"Hombrechtikon","id":327,"type":"M"},{"latitude":47.306294,"longitude":8.755811,"zip":"8625","city":"Gossau ZH","address":"Im Zentrum 3","name":"Gossau ZH","id":328,"type":"M"},{"latitude":47.377753,"longitude":8.539385,"zip":"8001","city":"Zürich","address":"Hauptbahnhof","name":"Zürich - Hauptbahnhof","id":329,"type":"M"},{"latitude":47.3748,"longitude":8.536017,"zip":"8001","city":"Zürich","address":"Löwenstrasse  31-35","name":"Zürich - City","id":330,"type":"MMM"},{"latitude":47.349567,"longitude":8.715253,"zip":"8610","city":"Uster","address":"Zürichstrasse  18","name":"Uster - Illuster","id":331,"type":"MMM"},{"latitude":47.408071,"longitude":8.595275,"zip":"8301","city":"Glattzentrum","address":"Glattzentrum","name":"Wallisellen - Glattzentrum","id":332,"type":"MMM"},{"latitude":47.392078,"longitude":8.538639,"zip":"8057","city":"Zürich","address":"Schaffhauserstrasse  75","name":"Zürich - Schaffhauserplatz","id":333,"type":"M"},{"latitude":47.334308,"longitude":8.529436,"zip":"8038","city":"Zürich","address":"Paradiesstrasse  3","name":"Zürich - Paradies","id":334,"type":"M"},{"latitude":47.379297,"longitude":8.559384,"zip":"8044","city":"Zürich","address":"Toblerstrasse  73","name":"Zürich - Toblerplatz","id":335,"type":"M"},{"latitude":47.346943,"longitude":8.528541,"zip":"8038","city":"Zürich","address":"Mutschellenstrasse  137","name":"Zürich - Blumen Bellaria","id":336,"type":"SPEZ"},{"latitude":47.408565,"longitude":8.543854,"zip":"8050","city":"Zürich","address":"Baumackerstrasse  35","name":"Zürich - Oerlikon","id":337,"type":"FM"},{"latitude":47.484196,"longitude":7.546803,"zip":"4107","city":"Ettingen","address":"Therwilerstrasse  9","name":"Ettingen","id":338,"type":"MM"},{"latitude":47.349074,"longitude":8.272418,"zip":"5610","city":"Wohlen AG","address":"Bahnhofstrasse 7","name":"Wohlen","id":339,"type":"MM"},{"latitude":47.277705,"longitude":8.452633,"zip":"8910","city":"Affoltern am Albis","address":"Centralweg  3","name":"Affoltern a. A.","id":340,"type":"MM"},{"latitude":46.168712,"longitude":8.79505,"zip":"6600","city":"Locarno","address":"Piazza Grande","name":"Locarno","id":341,"type":"FM"},{"latitude":47.460307,"longitude":8.246419,"zip":"5413","city":"Birmenstorf AG","address":"Bruggerstrasse  3","name":"Birmenstorf","id":342,"type":"DMP"},{"latitude":47.324823,"longitude":7.982757,"zip":"5745","city":"Safenwil","address":"Eienstrasse  2","name":"Safenwil","id":343,"type":"DMP"},{"latitude":47.346634,"longitude":8.160396,"zip":"5703","city":"Seon","address":"Unterdorfstrasse 6","name":"Seon","id":344,"type":"DMP"},{"latitude":46.879414,"longitude":8.641623,"zip":"6460","city":"Altdorf UR","address":"Gitschenstrasse  14","name":"Altdorf","id":345,"type":"DMP"},{"latitude":46.820458,"longitude":8.40573,"zip":"6390","city":"Engelberg","address":"Klosterstrasse  5","name":"Engelberg","id":346,"type":"DMP"},{"latitude":47.062153,"longitude":8.31687,"zip":"6006","city":"Luzern","address":"Mettenwylstrasse  16","name":"Luzern - Wesemlin","id":347,"type":"DMP"},{"latitude":47.097638,"longitude":8.205508,"zip":"6206","city":"Neuenkirch","address":"Luzernstrasse  18","name":"Neuenkirch","id":348,"type":"DMP"},{"latitude":47.227194,"longitude":7.895553,"zip":"6264","city":"Pfaffnau","address":"Sagenstrasse  5","name":"Pfaffnau","id":349,"type":"DMP"},{"latitude":46.956281,"longitude":8.366341,"zip":"6370","city":"Stans","address":"Marktgasse  2","name":"Stans","id":350,"type":"DMP"},{"latitude":47.003269,"longitude":9.501454,"zip":"7310","city":"Bad Ragaz","address":"Bahnhofstrasse  2","name":"Bad Ragaz","id":351,"type":"DMP"},{"latitude":47.385545,"longitude":9.656263,"zip":"9444","city":"Diepoldsau","address":"Hintere Kirchstrasse  1","name":"Diepoldsau","id":352,"type":"DMP"},{"latitude":47.212149,"longitude":9.522826,"zip":"9492","city":"Eschen","address":"St. Martins-Ring  3","name":"FL - Eschen","id":353,"type":"DMP"},{"latitude":47.396936,"longitude":9.581404,"zip":"9445","city":"Rebstein","address":"Staatsstrasse  128","name":"Rebstein","id":354,"type":"DMP"},{"latitude":47.240072,"longitude":9.523533,"zip":"9491","city":"Ruggell","address":"Landstrasse 33","name":"FL -  Ruggell","id":355,"type":"DMP"},{"latitude":47.104464,"longitude":9.524247,"zip":"9495","city":"Triesen","address":"Landstrasse  251","name":"FL - Triesen","id":356,"type":"DMP"},{"latitude":46.36423,"longitude":8.184366,"zip":"3996","city":"Binn","address":"Konsumverein Binn","name":"Binn","id":357,"type":"DMP"},{"latitude":46.337792,"longitude":8.016104,"zip":"3982","city":"Bitsch","address":"Furkastrasse","name":"Bitsch","id":358,"type":"DMP"},{"latitude":46.201746,"longitude":7.223409,"zip":"1955","city":"Chamoson","address":"Chemin Neuf  2","name":"Chamoson","id":359,"type":"DMP"},{"latitude":46.398983,"longitude":8.145602,"zip":"3995","city":"Ernen","address":"Konsumverein Ernen-Binn","name":"Ernen","id":360,"type":"DMP"},{"latitude":46.081101,"longitude":7.212314,"zip":"1934","city":"Le Châble VS","address":"Villette","name":"Le Châble","id":361,"type":"DMP"},{"latitude":46.31643,"longitude":7.63424,"zip":"3953","city":"Leuk Stadt","address":"Konsumgenossenschaft","name":"Leuk","id":362,"type":"DMP"},{"latitude":46.186973,"longitude":7.208619,"zip":"1912","city":"Leytron","address":"Giro Union","name":"Leytron","id":363,"type":"DMP"},{"latitude":46.261491,"longitude":7.494481,"zip":"3966","city":"Réchy","address":"Place Prannivier","name":"Réchy","id":364,"type":"DMP"},{"latitude":46.309059,"longitude":7.641813,"zip":"3952","city":"Susten","address":"Konsumgenossenschaft","name":"Susten","id":365,"type":"DMP"},{"latitude":46.232407,"longitude":7.870831,"zip":"3922","city":"Stalden VS","address":"Zum Marktplatz","name":"Stalden","id":366,"type":"DMP"},{"latitude":47.707722,"longitude":8.811629,"zip":"8262","city":"Ramsen","address":"Petersburg  416","name":"Ramsen","id":367,"type":"DMP"},{"latitude":47.421324,"longitude":8.411174,"zip":"8954","city":"Geroldswil","address":"Poststrassse 4","name":"Geroldswil","id":368,"type":"DMP"},{"latitude":47.306984,"longitude":8.590461,"zip":"8703","city":"Erlenbach ZH","address":"Bahnhofstrasse  42","name":"Erlenbach - Erlibacher Märt","id":370,"type":"M"},{"latitude":47.494496,"longitude":8.740248,"zip":"8400","city":"Winterthur","address":"Pflanzschulstrasse  9","name":"Winterthur - Deutweg","id":371,"type":"M"},{"latitude":46.237264,"longitude":6.003277,"zip":"01710","city":"Thoiry","address":"CC Val Thoiry","name":"Thoiry   (F)","id":372,"type":"MMM"},{"latitude":46.179453,"longitude":6.224442,"zip":"74112","city":"Etrembières","address":"CC Shopping-Etrembières","name":"Etrembières  (F)","id":373,"type":"MMM"},{"latitude":47.468188,"longitude":9.588653,"zip":"9424","city":"Rheineck","address":"Rhyguetstrasse 2","name":"Rheineck","id":374,"type":"M"},{"latitude":46.799383,"longitude":6.743066,"zip":"1462","city":"Yvonand","address":"Rue des Vergers","name":"Yvonand","id":375,"type":"DMP"},{"latitude":46.537794,"longitude":6.332119,"zip":"1145","city":"Bière","address":"Le Centre","name":"Bière","id":376,"type":"DMP"},{"latitude":46.316602,"longitude":6.966986,"zip":"1860","city":"Aigle","address":"Route du Rhône 7","name":"Aigle","id":377,"type":"DMP"},{"latitude":46.797428,"longitude":7.255945,"zip":"1715","city":"Alterswil FR","address":"Dorfzentrum Alpenrose","name":"Alterswil","id":378,"type":"DMP"},{"latitude":46.86142,"longitude":7.2578,"zip":"3185","city":"Schmitten FR","address":"Mülitalstrasse 12","name":"Schmitten","id":379,"type":"DMP"},{"latitude":46.180768,"longitude":7.806508,"zip":"3924","city":"St. Niklaus VS","address":"Eyastrasse  1","name":"St. Niklaus","id":380,"type":"DMP"},{"latitude":47.419714,"longitude":7.501816,"zip":"4242","city":"Laufen","address":"Bahnhofstrasse  4","name":"Laufen - Birscenter","id":381,"type":"MM"},{"latitude":46.108292,"longitude":7.92818,"zip":"3906","city":"Saas Fee","address":"Hôtel du Glacier","name":"Saas Fee","id":382,"type":"M"},{"latitude":46.231221,"longitude":6.110318,"zip":"1215","city":"Genève 15 Aéroport","address":"Route de l'Aéroport 25","name":"Genève - Cointrin Aéroport","id":383,"type":"M"},{"latitude":47.520208,"longitude":7.694093,"zip":"4133","city":"Pratteln","address":"Burggartenstrasse  21","name":"Pratteln","id":384,"type":"MM"},{"latitude":46.509448,"longitude":6.494909,"zip":"1110","city":"Morges","address":"Rue du Pont Neuf 6","name":"Morges","id":385,"type":"MM"},{"latitude":47.569861,"longitude":7.615243,"zip":"4058","city":"Basel","address":"Riehenstrasse 315","name":"Basel - Eglisee","id":386,"type":"M"},{"latitude":47.09515,"longitude":8.348902,"zip":"6033","city":"Buchrain","address":"Unterdorfstrasse","name":"Buchrain - Tschannhof","id":387,"type":"M"},{"latitude":46.685529,"longitude":7.681729,"zip":"3700","city":"Spiez","address":"Terminus","name":"Spiez - Terminus","id":388,"type":"MM"},{"latitude":47.558334,"longitude":7.601736,"zip":"4058","city":"Basel","address":"Grenzacherstrasse  62/64","name":"Basel - Warteckhof","id":389,"type":"M"},{"latitude":47.539893,"longitude":9.182983,"zip":"8583","city":"Sulgen","address":"Hauptstrasse  3","name":"Sulgen - Passerelle","id":390,"type":"M"},{"latitude":46.787238,"longitude":6.620535,"zip":"1442","city":"Montagny-Yverdon","address":"En Chamard","name":"Montagny","id":391,"type":"MM"},{"latitude":47.138168,"longitude":8.192259,"zip":"6204","city":"Sempach Stadt","address":"Oberstadt 6","name":"Sempach-Stadt","id":392,"type":"DMP"},{"latitude":47.137643,"longitude":8.579718,"zip":"6314","city":"Unterägeri","address":"Zugerstrasse  32","name":"Unterägeri","id":393,"type":"M"},{"latitude":47.085464,"longitude":8.346674,"zip":"6030","city":"Ebikon","address":"Zugerstrasse  5","name":"Ebikon - MParc","id":394,"type":"FM"},{"latitude":46.153842,"longitude":8.77372,"zip":"6612","city":"Ascona","address":"Via Muraccio  2","name":"Ascona","id":395,"type":"M"},{"latitude":46.207938,"longitude":6.123182,"zip":"1203","city":"Genève","address":"Promenade de l'Europe  11","name":"Genève - Charmilles","id":396,"type":"MM"},{"latitude":46.203678,"longitude":6.15854,"zip":"1207","city":"Genève","address":"Rue des Eaux-Vives  17-19","name":"Genève - Eaux-Vives","id":397,"type":"MM"},{"latitude":47.050406,"longitude":8.299081,"zip":"6003","city":"Luzern","address":"Bruchstrasse  18","name":"Luzern - Bruchstrasse","id":398,"type":"M"},{"latitude":47.228789,"longitude":8.820524,"zip":"8640","city":"Rapperswil SG","address":"Zürcherstrasse  4","name":"Rapperswil - Sonnenhof","id":399,"type":"MM"},{"latitude":45.837133,"longitude":9.024057,"zip":"6830","city":"Chiasso","address":"Via Bernardino Luini","name":"Chiasso - Boffalora","id":400,"type":"M"},{"latitude":46.481415,"longitude":6.777767,"zip":"1071","city":"Chexbres","address":"Grand-Rue  2","name":"Chexbres","id":401,"type":"DMP"},{"latitude":46.167346,"longitude":6.115604,"zip":"1228","city":"Plan-les-Ouates","address":"Route de Saint-Julien 176","name":"Plan-les-Ouates","id":402,"type":"MM"},{"latitude":47.497996,"longitude":8.76169,"zip":"8404","city":"Winterthur","address":"Industriestrasse 43","name":"Winterthur - Grüzepark II","id":403,"type":"FM"},{"latitude":47.493737,"longitude":7.618948,"zip":"4144","city":"Arlesheim","address":"Postplatz  7","name":"Arlesheim","id":404,"type":"MM"},{"latitude":47.07719,"longitude":8.275224,"zip":"6020","city":"Emmenbrücke","address":"Sonnenplatz  1","name":"Emmenbrücke - Sonnenplatz","id":405,"type":"MM"},{"latitude":47.122516,"longitude":7.994186,"zip":"6130","city":"Willisau","address":"Ettiswilerstrasse  14","name":"Willisau - Chrüzhof","id":406,"type":"M"},{"latitude":47.547659,"longitude":7.58863,"zip":"4051","city":"Basel","address":"Centralbahnstrasse  10","name":"Basel - Bahnhof SBB","id":407,"type":"M"},{"latitude":47.376936,"longitude":9.537709,"zip":"9450","city":"Altstätten SG","address":"Stossstrasse  2","name":"Altstätten SG","id":408,"type":"MM"},{"latitude":45.870122,"longitude":8.985962,"zip":"6850","city":"Mendrisio","address":"Via L. Lavizzari  2, Piazza alla Valle","name":"Mendrisio","id":409,"type":"M"},{"latitude":46.723514,"longitude":6.531378,"zip":"1350","city":"Orbe","address":"Rue des Terreaux 22","name":"Orbe","id":410,"type":"M"},{"latitude":47.127023,"longitude":8.250198,"zip":"6026","city":"Rain","address":"Gääli 6","name":"Rain","id":411,"type":"DMP"},{"latitude":46.947884,"longitude":7.445802,"zip":"3011","city":"Bern","address":"Marktgasse 28-32","name":"Bern - Zytglogge","id":412,"type":"FM"},{"latitude":46.754947,"longitude":8.028227,"zip":"3855","city":"Brienz BE","address":"Hauptstrasse  51","name":"Brienz","id":413,"type":"M"},{"latitude":46.507818,"longitude":6.624789,"zip":"1007","city":"Lausanne","address":"Avenue de Rhodanie 2","name":"Lausanne - Ouchy","id":414,"type":"M"},{"latitude":46.899407,"longitude":6.783876,"zip":"2025","city":"Chez-le-Bart","address":"Rue de Combamare  21","name":"Chez-le-Bart - Béroche","id":415,"type":"M"},{"latitude":47.066656,"longitude":9.503094,"zip":"9496","city":"Balzers","address":"Landstrasse 20","name":"FL - Balzers","id":416,"type":"DMP"},{"latitude":46.79944,"longitude":7.152325,"zip":"1700","city":"Fribourg","address":"Boulevard de Pérolles  21 A","name":"Fribourg - Pérolles","id":417,"type":"MM"},{"latitude":47.567196,"longitude":9.111096,"zip":"8570","city":"Weinfelden","address":"Amriswilerstrasse 12","name":"Weinfelden - Rösslifelsen","id":418,"type":"MM"},{"latitude":46.51548,"longitude":6.617654,"zip":"1007","city":"Lausanne","address":"Avenue de Cour  36","name":"Lausanne - Cour","id":419,"type":"M"},{"latitude":47.472978,"longitude":9.112592,"zip":"9524","city":"Zuzwil SG","address":"Herbergstrasse  12","name":"Zuzwil","id":420,"type":"DMP"},{"latitude":47.134688,"longitude":7.244083,"zip":"2502","city":"Biel/Bienne","address":"Bahnhofstrasse  15","name":"Biel - Bielerhof","id":421,"type":"MM"},{"latitude":47.128973,"longitude":9.056641,"zip":"8867","city":"Niederurnen","address":"Ziegelbrückstrasse 21","name":"Niederurnen","id":422,"type":"M"},{"latitude":47.219051,"longitude":7.78807,"zip":"4900","city":"Langenthal","address":"Murgenthalstrasse  17","name":"Langenthal - MParc","id":423,"type":"FM"},{"latitude":46.571684,"longitude":6.825747,"zip":"1610","city":"Oron-la-Ville","address":"Route de Lausanne  2","name":"Oron-la-Ville","id":424,"type":"M"},{"latitude":47.140496,"longitude":7.247331,"zip":"2502","city":"Biel/Bienne","address":"Kanalgasse 36-38","name":"Biel - Neumarkt","id":425,"type":"MM"},{"latitude":47.368388,"longitude":8.781249,"zip":"8330","city":"Pfäffikon ZH","address":"Turmstrasse  9","name":"Pfäffikon ZH","id":426,"type":"MM"},{"latitude":46.192858,"longitude":6.143539,"zip":"1205","city":"Genève","address":"Rue de Carouge  64","name":"Plainpalais Centre","id":427,"type":"MM"},{"latitude":46.278895,"longitude":6.927945,"zip":"1893","city":"Muraz (Collombey)","address":"Rue des Condémines  5","name":"Muraz","id":428,"type":"DMP"},{"latitude":47.164061,"longitude":9.473418,"zip":"9470","city":"Buchs SG","address":"Churerstrasse  5","name":"Buchs SG - MParc","id":429,"type":"FM"},{"latitude":47.015329,"longitude":8.646839,"zip":"6438","city":"Ibach","address":"Mythen-Centerstr. 18","name":"Ibach-Schwyz - Mythen-Center","id":430,"type":"MM"},{"latitude":47.540151,"longitude":7.603581,"zip":"4053","city":"Basel","address":"Reinacherstrasse  29","name":"Basel - Dreispitz OBI-Baumarkt","id":431,"type":"FM"},{"latitude":46.475512,"longitude":7.284201,"zip":"3780","city":"Gstaad","address":"Untergstaadstrasse 3","name":"Gstaad","id":432,"type":"MM"},{"latitude":47.033593,"longitude":8.282636,"zip":"6010","city":"Kriens","address":"Luzernerstrasse  30","name":"Kriens - Hofmatt","id":433,"type":"MM"},{"latitude":47.422574,"longitude":9.369646,"zip":"9000","city":"St. Gallen","address":"Bahnhofplatz 2","name":"St. Gallen Bahnhof","id":434,"type":"MR"},{"latitude":46.536194,"longitude":6.576422,"zip":"1022","city":"Chavannes-Renens","address":"Avenue du Tir-Fédéral  12","name":"Chavannes - Renens","id":435,"type":"M"},{"latitude":47.699004,"longitude":8.654219,"zip":"8203","city":"Schaffhausen","address":"Dürstlingweg  2","name":"Schaffhausen - Buchthalen","id":436,"type":"M"},{"latitude":47.41129,"longitude":8.524988,"zip":"8046","city":"Zürich","address":"Wehntalerstrasse  293","name":"Zürich - Wehntalerstrasse","id":437,"type":"DMP"},{"latitude":47.049287,"longitude":8.309683,"zip":"6003","city":"Luzern","address":"Zentralstrasse  7","name":"Luzern - Bahnhof M Express","id":438,"type":"M"},{"latitude":47.248176,"longitude":7.971509,"zip":"6260","city":"Reiden","address":"Hauptstrasse  52","name":"Reiden","id":439,"type":"M"},{"latitude":47.466877,"longitude":8.324717,"zip":"5430","city":"Wettingen","address":"Landstrasse  69","name":"Wettingen - Landstrasse","id":440,"type":"MM"},{"latitude":47.539093,"longitude":7.603861,"zip":"4053","city":"Basel","address":"Münchensteinerstrasse  200","name":"Basel - Dreispitz  MParc","id":441,"type":"FM"},{"latitude":47.412811,"longitude":9.186384,"zip":"9230","city":"Flawil","address":"Magdenauerstrasse  10","name":"Flawil","id":442,"type":"MM"},{"latitude":47.317399,"longitude":7.802188,"zip":"4622","city":"Egerkingen","address":"Hausimollstrasse 1","name":"Egerkingen - Gäupark","id":443,"type":"MM"},{"latitude":47.257866,"longitude":8.181554,"zip":"5734","city":"Reinach AG","address":"Sandgasse  6","name":"Reinach  AG","id":444,"type":"MM"},{"latitude":47.438836,"longitude":8.843926,"zip":"8488","city":"Turbenthal","address":"Tösstalstrasse 54","name":"Turbenthal","id":445,"type":"M"},{"latitude":46.432169,"longitude":6.910117,"zip":"1820","city":"Montreux","address":"Place du Marché  6","name":"Montreux","id":446,"type":"MM"},{"latitude":47.325166,"longitude":8.472304,"zip":"8906","city":"Bonstetten","address":"Schachenstrasse 115","name":"Bonstetten","id":447,"type":"DMP"},{"latitude":46.525391,"longitude":6.634673,"zip":"1018","city":"Lausanne","address":"Rue de la Borde  3B","name":"Lausanne - La Borde","id":448,"type":"M"},{"latitude":46.966978,"longitude":6.851801,"zip":"2013","city":"Colombier NE","address":"Avenue de la Gare  16","name":"Colombier","id":449,"type":"M"},{"latitude":46.184156,"longitude":6.134404,"zip":"1227","city":"Carouge GE","address":"Avenue Vibert 32","name":"Carouge - La Praille  MParc","id":450,"type":"FM"},{"latitude":47.552215,"longitude":7.564055,"zip":"4054","city":"Basel","address":"Wanderstrasse  121","name":"Basel - Wanderstrasse","id":451,"type":"DMP"},{"latitude":47.554872,"longitude":7.615082,"zip":"4052","city":"Basel","address":"Zürcherstrasse  160","name":"Basel - Zürcherstrasse","id":452,"type":"DMP"},{"latitude":47.038396,"longitude":8.183716,"zip":"6102","city":"Malters","address":"Hellbühlstrasse  10","name":"Malters","id":453,"type":"M"},{"latitude":46.977535,"longitude":8.415974,"zip":"6374","city":"Buochs","address":"Ennetbürgerstrasse  45","name":"Buochs","id":454,"type":"M"},{"latitude":46.201529,"longitude":7.169632,"zip":"1911","city":"Ovronnaz","name":"Ovronnaz","id":455,"type":"DMP"},{"latitude":46.973963,"longitude":7.48528,"zip":"3063","city":"Ittigen","address":"Talweg 6","name":"Ittigen","id":456,"type":"MM"},{"latitude":47.430897,"longitude":9.395057,"zip":"9006","city":"St. Gallen","address":"Rorschacherstrasse 150","name":"St. Gallen - Silberturm","id":457,"type":"M"},{"latitude":47.567926,"longitude":7.569766,"zip":"4056","city":"Basel","address":"Lachenstrasse 1","name":"Basel - Lachenstrasse","id":458,"type":"DMP"},{"latitude":46.24068,"longitude":6.19956,"zip":"1245","city":"Collonge-Bellerive","address":"Route de Thonon 55","name":"Collonge-Bellerive - Vésenaz","id":459,"type":"MM"},{"latitude":47.196473,"longitude":8.723862,"zip":"8832","city":"Wollerau","address":"Wächlenstrasse 1","name":"Wollerau","id":460,"type":"M"},{"latitude":47.363639,"longitude":8.531065,"zip":"8002","city":"Zürich","address":"Tessinerplatz 10","name":"Zürich - Bahnhof Enge","id":461,"type":"M"},{"latitude":47.415083,"longitude":9.631747,"zip":"9435","city":"Heerbrugg","address":"Auerstrasse 31","name":"Heerbrugg","id":462,"type":"DMP"},{"latitude":46.526575,"longitude":6.602877,"zip":"1008","city":"Prilly","address":"Chemin du Viaduc 1","name":"Prilly - Malley","id":463,"type":"M"},{"latitude":46.965172,"longitude":7.458977,"zip":"3014","city":"Bern","address":"Wankdorffeldstrasse 90","name":"Bern - Wankdorf  MParc","id":464,"type":"FM"},{"latitude":47.353912,"longitude":8.43676,"zip":"8903","city":"Birmensdorf ZH","address":"Zürcherstrasse 15","name":"Birmensdorf","id":465,"type":"M"},{"latitude":47.189521,"longitude":7.399261,"zip":"2540","city":"Grenchen","address":"Freiestrasse 10","name":"Grenchen","id":466,"type":"MM"},{"latitude":47.07129,"longitude":8.361935,"zip":"6043","city":"Adligenswil","address":"Obgardirain 1","name":"Adligenswil","id":467,"type":"DMP"},{"latitude":47.05434,"longitude":8.309617,"zip":"6004","city":"Luzern","address":"Hertensteinstrasse 9","name":"Luzern - Schweizerhof","id":468,"type":"MM"},{"latitude":47.33634,"longitude":8.619119,"zip":"8126","city":"Zumikon","address":"Dorfstrasse 17","name":"Zumikon","id":469,"type":"M"},{"latitude":47.218155,"longitude":7.51133,"zip":"4513","city":"Langendorf","address":"Fabrikstrasse 6","name":"Langendorf - Ladedorf","id":470,"type":"MMM"},{"latitude":46.896787,"longitude":8.249682,"zip":"6060","city":"Sarnen","address":"Nelkenstrasse 5","name":"Sarnen - Sarnen-Center","id":471,"type":"MM"},{"latitude":47.046016,"longitude":8.307182,"zip":"6003","city":"Luzern","address":"Winkelriedstrasse 58","name":"Luzern - Waldstätterstrasse","id":472,"type":"M"},{"latitude":46.55409,"longitude":6.56908,"zip":"1023","city":"Crissier","address":"Chemin du Closalet 7","name":"Crissier","id":473,"type":"MMM"},{"latitude":47.379797,"longitude":8.675255,"zip":"8604","city":"Volketswil","address":"Industriestrasse 20","name":"Volketswil  - MParc","id":474,"type":"FM"},{"latitude":46.992911,"longitude":7.457555,"zip":"3052","city":"Zollikofen","address":"Bernstrasse 103","name":"Zollikofen","id":475,"type":"M"},{"latitude":46.773671,"longitude":7.574129,"zip":"3661","city":"Uetendorf","address":"Dorfstrasse 21","name":"Uetendorf","id":476,"type":"M"},{"latitude":47.482185,"longitude":7.736397,"zip":"4410","city":"Liestal","address":"Kasernenstrasse 8","name":"Liestal","id":477,"type":"MM"},{"latitude":47.226209,"longitude":8.980696,"zip":"8730","city":"Uznach","address":"Zürcherstrasse 25","name":"Uznach - Frohsinn","id":478,"type":"MM"},{"latitude":46.179318,"longitude":8.851721,"zip":"6598","city":"Tenero","address":"Via al Giardino","name":"Tenero","id":479,"type":"M"},{"latitude":46.190479,"longitude":6.152527,"zip":"1206","city":"Genève","address":"Avenue de Champel 61","name":"Genève - Champel","id":480,"type":"MM"},{"latitude":46.775891,"longitude":7.161249,"zip":"1723","city":"Marly","address":"Route des Pralettes 1","name":"Marly - Centre","id":481,"type":"MM"},{"latitude":46.803142,"longitude":7.154379,"zip":"1700","city":"Fribourg","address":"Rue St-Pierre 2","name":"Fribourg - St. Pierre","id":482,"type":"M"},{"latitude":46.533036,"longitude":6.646817,"zip":"1010","city":"Lausanne","address":"Route de Berne 1","name":"Lausanne - La Sallaz","id":483,"type":"M"},{"latitude":46.530659,"longitude":6.597807,"zip":"1020","city":"Renens VD","address":"Avenue de Florissant 38","name":"Renens - Florissant","id":484,"type":"M"},{"latitude":46.638626,"longitude":6.63606,"zip":"1040","city":"Echallens","address":"Rue de Praz-Palud 2","name":"Echallens","id":485,"type":"MM"},{"latitude":46.202719,"longitude":6.151177,"zip":"1204","city":"Genève","address":"Rue du Prince 4","name":"Genève - Rive Print Service","id":486,"type":"SPEZ"},{"latitude":47.557622,"longitude":7.560374,"zip":"4123","city":"Allschwil","address":"Lindenplatz 1","name":"Allschwil-Lindenplatz","id":487,"type":"DMP"},{"latitude":47.521011,"longitude":7.704295,"zip":"4133","city":"Pratteln","address":"Gehrenackerstrasse 7","name":"Pratteln-Gehrenacker","id":488,"type":"DMP"},{"latitude":47.476483,"longitude":8.307884,"zip":"5400","city":"Baden","address":"Metro Shop, Bahnhof SBB","name":"Baden - Metro Shop","id":489,"type":"SPEZ"},{"latitude":47.344345,"longitude":8.530135,"zip":"8038","city":"Zürich","address":"Etzelstrasse 3","name":"Zürich - Wollishofen","id":490,"type":"M"},{"latitude":47.522178,"longitude":7.617847,"zip":"4142","city":"Münchenstein","address":"Baselstrasse 71","name":"Zollweiden","id":491,"type":"DMP"},{"latitude":46.811574,"longitude":9.397394,"zip":"7402","city":"Bonaduz","address":"Versamerstrasse 15","name":"Bonaduz","id":492,"type":"DMP"},{"latitude":47.363278,"longitude":7.346489,"zip":"2800","city":"Delémont","address":"Rue de la Maltière 12","name":"Delémont","id":493,"type":"MM"},{"latitude":47.462477,"longitude":9.042432,"zip":"9500","city":"Wil SG","address":"Obere Bahnhofstrasse 5","name":"Wil - M-Electronics","id":494,"type":"MES"},{"latitude":46.532965,"longitude":6.585601,"zip":"1020","city":"Renens VD","address":"Avenue du Silo 11","name":"Renens OBI","id":495,"type":"FM"},{"latitude":46.949437,"longitude":7.438355,"zip":"3011","city":"Bern","address":"Bahnhofplatz 10","name":"Bern - Bahnhof","id":496,"type":"MM"},{"latitude":47.033484,"longitude":8.426206,"zip":"6353","city":"Weggis","address":"Luzernerstrasse 44","name":"Weggis","id":497,"type":"DMP"},{"latitude":47.21303,"longitude":9.024271,"zip":"8722","city":"Kaltbrunn","address":"Uznacherstrasse 1","name":"Kaltbrunn","id":498,"type":"DMP"},{"latitude":46.681305,"longitude":7.852146,"zip":"3800","city":"Interlaken","address":"Rugenparkstrasse 1","name":"Interlaken","id":499,"type":"MM"},{"latitude":47.09729,"longitude":8.363655,"zip":"6036","city":"Dierikon","address":"Industriestrasse 2","name":"Dierikon - Outlet","id":500,"type":"SPEZ"},{"latitude":47.352403,"longitude":8.349758,"zip":"5620","city":"Bremgarten AG","address":"Zufikerstrasse 2","name":"Bremgarten  AG","id":502,"type":"MM"},{"latitude":47.555088,"longitude":7.798286,"zip":"4310","city":"Rheinfelden","address":"Lindenstrasse 3","name":"Rheinfelden","id":503,"type":"MM"},{"latitude":45.998014,"longitude":8.905471,"zip":"6982","city":"Agno","address":"Via Lugano 21","name":"Centro Agno","id":504,"type":"MMM"},{"latitude":47.450357,"longitude":8.562227,"zip":"8058","city":"Zürich - Flughafen","address":"unique zurich airport","name":"Zürich - Airport","id":505,"type":"M"},{"latitude":47.568494,"longitude":8.523369,"zip":"8193","city":"Eglisau","address":"Sandgruebenstrasse 1","name":"Eglisau","id":506,"type":"M"},{"latitude":46.316434,"longitude":6.936474,"zip":"1860","city":"Aigle","address":"Ch. Sous-le-Grand Pré 4","name":"Aigle - Chablais Centre","id":507,"type":"MMM"},{"latitude":46.250036,"longitude":7.351994,"zip":"1965","city":"Savièse","address":"Centre Commercial du Stade","name":"Savièse","id":508,"type":"M"},{"latitude":47.463222,"longitude":8.991658,"zip":"8370","city":"Sirnach","address":"Winterthurerstrasse 27","name":"Sirnach","id":509,"type":"M"},{"latitude":47.367858,"longitude":8.87751,"zip":"8494","city":"Bauma","address":"Heinrich - Gujerstrasse 10","name":"Bauma","id":510,"type":"M"},{"latitude":46.214526,"longitude":7.005291,"zip":"1890","city":"St-Maurice","address":"Av. du Simplon 15","name":"St-Maurice","id":511,"type":"M"},{"latitude":47.186388,"longitude":7.703864,"zip":"3360","city":"Herzogenbuchsee","address":"Bernstrasse 33","name":"Herzogenbuchsee","id":512,"type":"MM"},{"latitude":46.224851,"longitude":9.04411,"zip":"6532","city":"Castione","address":"Via Corogna","name":"Arbedo Castione","id":513,"type":"M"},{"latitude":47.172192,"longitude":8.101142,"zip":"6210","city":"Sursee","address":"Bahnhofstrasse 30","name":"Surseepark  Fachmarkt","id":514,"type":"FM"},{"latitude":47.491634,"longitude":8.706491,"zip":"8406","city":"Winterthur","address":"Zürcherstrasse 102","name":"Winterthur - Töss","id":515,"type":"M"},{"latitude":47.353822,"longitude":8.713818,"zip":"8610","city":"Uster","address":"Winterthurerstrasse 18","name":"Uster-West","id":516,"type":"FM"},{"latitude":46.613482,"longitude":6.506687,"zip":"1304","city":"Cossonay-Ville","address":"Route des Chavannes 1","name":"Cossonay","id":517,"type":"M"},{"latitude":47.252881,"longitude":8.85341,"zip":"8630","city":"Rüti ZH","address":"Werkstrasse 43","name":"Rüti  ZH  Fachmarkt","id":518,"type":"FM"},{"latitude":47.390934,"longitude":8.518782,"zip":"8005","city":"Zürich","address":"Hardturmstrasse 11","name":"Zürich - Puls 5","id":519,"type":"M"},{"latitude":47.509615,"longitude":8.539578,"zip":"8180","city":"Bülach","address":"Feldstrasse 85","name":"Bülach - Süd Fachmarkt","id":520,"type":"FM"},{"latitude":47.549886,"longitude":7.57819,"zip":"4054","city":"Basel","address":"Birsigstrasse 103","name":"Basel - Birsigstrasse","id":521,"type":"DMP"},{"latitude":47.412442,"longitude":9.06821,"zip":"9602","city":"Bazenheid","address":"Wilerstrasse 17","name":"Bazenheid","id":522,"type":"M"},{"latitude":47.552834,"longitude":7.549964,"zip":"4123","city":"Allschwil","address":"Baslerstrasse 191","name":"Allschwil - Ziegelei","id":523,"type":"M"},{"latitude":47.419121,"longitude":8.548616,"zip":"8052","city":"Zürich","address":"Schaffhauserstrasse 470","name":"Zürich - Seebach","id":524,"type":"MM"},{"latitude":47.200338,"longitude":8.792705,"zip":"8808","city":"Pfäffikon SZ","address":"Gwattstrasse 11","name":"Pfäffikon - Seedammcenter","id":525,"type":"MM"},{"latitude":47.050767,"longitude":8.550991,"zip":"6410","city":"Goldau","address":"Parkstrasse 25","name":"Goldau","id":526,"type":"M"},{"latitude":47.018258,"longitude":8.30893,"zip":"6048","city":"Horw","address":"Gemeindehausplatz 14+15","name":"Horw","id":527,"type":"M"},{"latitude":46.46336,"longitude":6.840199,"zip":"1800","city":"Vevey","address":"Av. Gustave Coindet 11","name":"Vevey - Midi Coindet","id":528,"type":"MM"},{"latitude":46.154199,"longitude":8.959574,"zip":"6592","city":"S. Antonino","address":"Via Serrai 3","name":"Centro S.Antonino OBI","id":529,"type":"FM"},{"latitude":46.382537,"longitude":6.235097,"zip":"1260","city":"Nyon","address":"Rue de la Morâche 6","name":"Nyon - La Combe","id":530,"type":"MMM"},{"latitude":47.508593,"longitude":8.54073,"zip":"8180","city":"Bülach","address":"Feldstrasse 89","name":"Bülach - Süd","id":531,"type":"M"},{"latitude":46.53425,"longitude":6.564925,"zip":"1024","city":"Ecublens VD","address":"chemin du Croset 7","name":"Ecublens - Croset","id":532,"type":"MM"},{"latitude":46.923254,"longitude":7.41446,"zip":"3098","city":"Köniz","address":"Bläuacker 10","name":"Köniz - Bläuacker","id":533,"type":"MM"},{"latitude":46.387175,"longitude":8.11717,"zip":"3994","city":"Lax","name":"Lax","id":534,"type":"DMP"},{"latitude":46.126608,"longitude":7.937089,"zip":"3910","city":"Saas Grund","name":"Saas Grund","id":535,"type":"DMP"},{"latitude":47.352036,"longitude":8.349825,"zip":"5620","city":"Bremgarten AG","address":"Zufikerstrasse 4","name":"Bremgarten Fachmarkt","id":536,"type":"FM"},{"latitude":46.819217,"longitude":6.503296,"zip":"1450","city":"Ste-Croix","address":"Rue de l'Industrie 21","name":"Sainte-Croix","id":537,"type":"M"},{"latitude":47.073769,"longitude":8.292406,"zip":"6020","city":"Emmenbrücke","address":"Seetalstrasse 50","name":"Emmen - Meierhöfli","id":538,"type":"MM"},{"latitude":47.365351,"longitude":8.547869,"zip":"8008","city":"Zürich","address":"Falkenstrasse 19 - 21","name":"Zürich - Stadelhofen","id":539,"type":"M"},{"latitude":47.438315,"longitude":8.347789,"zip":"5436","city":"Würenlos","address":"Shopping - Brücke A1","name":"Würenlos - Autobahnraststätte","id":540,"type":"M"},{"latitude":46.936629,"longitude":7.475073,"zip":"3006","city":"Bern","address":"Egghölzlistrasse 1 / 1a","name":"Bern - Egghölzli","id":541,"type":"M"},{"latitude":46.174578,"longitude":6.87058,"zip":"1874","city":"Champéry","address":"Route de la Fin 71","name":"Champéry","id":542,"type":"DMP"},{"latitude":47.660739,"longitude":8.861632,"zip":"8260","city":"Stein am Rhein","address":"Grossi Schanz  10","name":"Stein am Rhein","id":543,"type":"M"},{"latitude":47.680825,"longitude":8.617882,"zip":"8212","city":"Neuhausen am Rheinfall","address":"Wildenstrasse  8","name":"Neuhausen","id":544,"type":"M"},{"latitude":46.52513,"longitude":6.623044,"zip":"1004","city":"Lausanne","address":"Rue du Maupas 69","name":"Lausanne - Maupas","id":545,"type":"DMP"},{"latitude":45.971194,"longitude":8.92599,"zip":"6916","city":"Grancia","address":"Parco Commerciale Grancia","name":"Grancia","id":546,"type":"M"},{"latitude":47.374117,"longitude":8.543988,"zip":"8001","city":"Zürich","address":"Mühlegasse 11","name":"Zürich - Niederdorf","id":547,"type":"M"},{"latitude":47.37486,"longitude":8.485814,"zip":"8047","city":"Zürich","address":"Albisriederstrasse 365","name":"Zürich - Pünt","id":548,"type":"M"},{"latitude":47.369996,"longitude":8.520416,"zip":"8003","city":"Zürich","address":"Birmensdorferstrasse 140","name":"Zürich - Schmiede Wiedikon","id":549,"type":"M"},{"latitude":46.766289,"longitude":6.650176,"zip":"1400","city":"Yverdon-les-Bains","address":"Rue de Lausanne 10","name":"Yverdon Sud","id":550,"type":"M"},{"latitude":47.015588,"longitude":7.490586,"zip":"3302","city":"Moosseedorf","address":"Gewerbestrasse 11","name":"Schönbühl - Moosbühl","id":551,"type":"FM"},{"latitude":47.308253,"longitude":7.927675,"zip":"4665","city":"Oftringen","address":"Ackerweg 2","name":"Oftringen - MParc","id":552,"type":"FM"},{"latitude":47.361579,"longitude":8.045873,"zip":"5035","city":"Unterentfelden","address":"Binzmattweg 8","name":"Unterentfelden","id":553,"type":"MM"},{"latitude":46.926442,"longitude":7.564998,"zip":"3076","city":"Worb","address":"Richigenstrasse 1","name":"Worb","id":554,"type":"MM"},{"latitude":47.18702,"longitude":9.442202,"zip":"9472","city":"Grabs","address":"Staatsstrasse 89","name":"Grabs","id":555,"type":"DMP"},{"latitude":47.057749,"longitude":6.901721,"zip":"2053","city":"Cernier","address":"Rue Comble-Emine 5","name":"Cernier","id":556,"type":"MM"},{"latitude":47.497391,"longitude":8.761832,"zip":"8404","city":"Winterthur","address":"Industriestrasse 44","name":"Winterthur - Grüzepark I","id":557,"type":"FM"},{"latitude":47.455835,"longitude":9.046811,"zip":"9501","city":"Wil SG","address":"Churfirstenstrasse 54","name":"Wil MParc (Provisorium)","id":558,"type":"FM"},{"latitude":47.240611,"longitude":8.923315,"zip":"8733","city":"Eschenbach SG","address":"Rickenstrasse  12","name":"Eschenbach","id":559,"type":"M"},{"latitude":47.541034,"longitude":7.574269,"zip":"4102","city":"Binningen","address":"Hauptstrasse 71","name":"Binningen - Zentrum","id":560,"type":"M"},{"latitude":46.793511,"longitude":7.133596,"zip":"1752","city":"Villars-sur-Glâne","address":"Rue du centre 4","name":"Villars-s/Glâne - Cormanon","id":561,"type":"M"},{"latitude":46.945272,"longitude":7.374401,"zip":"3027","city":"Bern","address":"Gilberte-de-Courgenay-Platz 4","name":"Bern - Westside","id":562,"type":"MM"},{"latitude":47.357411,"longitude":8.571541,"zip":"8008","city":"Zürich","address":"Forchstrasse 260","name":"Zürich - Burgwies","id":563,"type":"M"},{"latitude":47.417311,"longitude":9.256384,"zip":"9200","city":"Gossau SG","address":"St. Gallerstrasse 115","name":"Gossau","id":564,"type":"MM"},{"latitude":46.901769,"longitude":6.580535,"zip":"2114","city":"Fleurier","address":"Grand-Rue  27","name":"Fleurier","id":565,"type":"MM"},{"latitude":47.163817,"longitude":9.472668,"zip":"9470","city":"Buchs SG","address":"Churerstrasse  10","name":"Buchs SG","id":566,"type":"MM"},{"latitude":47.388101,"longitude":8.487049,"zip":"8048","city":"Zürich","address":"Altstetterstrasse 145","name":"Zürich - Altstetten  Neumarkt","id":567,"type":"MM"},{"latitude":47.3747,"longitude":8.523064,"zip":"8004","city":"Zürich","address":"Wengistrasse  7","name":"Zürich - Wengihof","id":568,"type":"M"},{"latitude":47.364496,"longitude":8.553764,"zip":"8008","city":"Zürich","address":"Kreuzplatz 20","name":"Zürich - Kreuzplatz","id":569,"type":"M"},{"latitude":47.228828,"longitude":8.66755,"zip":"8820","city":"Wädenswil","address":"Oberdorfstrasse  27-31","name":"Wädenswil","id":570,"type":"MM"},{"latitude":47.403604,"longitude":8.572531,"zip":"8051","city":"Zürich","address":"Winterthurerstrasse  524","name":"Zürich - Schwamendingen","id":571,"type":"M"},{"latitude":46.8477,"longitude":6.851342,"zip":"1470","city":"Estavayer-le-Lac","address":"Route de la Chapelle 24","name":"Estavayer-le-Lac","id":572,"type":"MM"},{"latitude":46.587476,"longitude":6.641504,"zip":"1053","city":"Cugy VD","address":"Route de Bottens 1","name":"Cugy","id":573,"type":"M"},{"latitude":47.575209,"longitude":7.646843,"zip":"4125","city":"Riehen","address":"Grenzacherweg 81","name":"Riehen - Grenzacherweg","id":574,"type":"DMP"},{"latitude":46.973444,"longitude":7.193989,"zip":"3210","city":"Kerzers","address":"Murtenstrasse 15","name":"Kerzers","id":575,"type":"M"},{"latitude":47.456512,"longitude":7.743163,"zip":"4416","city":"Bubendorf","address":"Grüngenstrasse 1","name":"Bubendorf","id":576,"type":"MM"},{"latitude":46.600219,"longitude":7.075848,"zip":"1635","city":"La Tour-de-Trême","address":"Route de Pra-Riond 2","name":"La Tour de Trême","id":577,"type":"MM"},{"latitude":46.885193,"longitude":7.045173,"zip":"1580","city":"Avenches","address":"Route de Pré-Vert 5","name":"Avenches","id":578,"type":"M"},{"latitude":47.254287,"longitude":6.999808,"zip":"2350","city":"Saignelégier","address":"Rue de la Gruère 23","name":"Saignelégier","id":579,"type":"M"},{"latitude":46.548293,"longitude":6.670873,"zip":"1066","city":"Epalinges","address":"Place de la Croix-Blanche 11","name":"Epalinges","id":580,"type":"MM"},{"latitude":47.302603,"longitude":8.692055,"zip":"8132","city":"Egg b. Zürich","address":"Gewerbestrasse 2-10","name":"Egg","id":581,"type":"MM"},{"latitude":46.521387,"longitude":6.616645,"zip":"1007","city":"Lausanne","address":"Av. de Sévelin 2 Ab","name":"Lausanne - Sévelin","id":582,"type":"M"},{"latitude":46.504848,"longitude":6.710607,"zip":"1091","city":"Aran","address":"Restoroute de Lavaux","name":"Lavaux","id":583,"type":"DMP"},{"latitude":46.237345,"longitude":7.28792,"zip":"1976","city":"Erde","address":"Scex-Riond / CP 60","name":"Erde","id":584,"type":"DMP"},{"latitude":47.5469,"longitude":7.62069,"zip":"4052","city":"Basel","address":"Lehenmattstrasse 260","name":"Basel - Lehenmatt","id":585,"type":"DMP"},{"latitude":46.817445,"longitude":7.339912,"zip":"3150","city":"Schwarzenburg","address":"Freiburgstrasse 5b","name":"Schwarzenburg","id":586,"type":"M"},{"latitude":47.233674,"longitude":7.65542,"zip":"3380","city":"Wangen an der Aare","address":"Vorstadt 14","name":"Wangen a. Aare","id":587,"type":"VOI"},{"latitude":46.930467,"longitude":7.427337,"zip":"3097","city":"Liebefeld","address":"Hessstrasse 45","name":"Liebefeld - Hessstrasse","id":588,"type":"VOI"},{"latitude":47.136933,"longitude":7.928253,"zip":"6144","city":"Zell LU","address":"Zelgmatte 2","name":"Zell","id":589,"type":"M"},{"latitude":46.524942,"longitude":6.90485,"zip":"1618","city":"Châtel-St-Denis","address":"Rte de Montreux 56","name":"Châtel-St-Denis","id":590,"type":"MM"},{"latitude":46.84589,"longitude":7.191822,"zip":"3186","city":"Düdingen","address":"Käsereistrasse 3","name":"Düdingen","id":591,"type":"MM"},{"latitude":47.089943,"longitude":6.80355,"zip":"2300","city":"La Chaux-de-Fonds","address":"Charles Naine 44","name":"La Chaux-de-Fonds Les Eplatures","id":592,"type":"MM"},{"latitude":47.011067,"longitude":7.00692,"zip":"2074","city":"Marin-Epagnier","address":"Rue Fleur-de-Lys  26","name":"Marin-Centre","id":593,"type":"MMM"},{"latitude":46.377069,"longitude":6.860666,"zip":"1897","city":"Bouveret","address":"En Bellossy","name":"Le Bouveret","id":594,"type":"M"},{"latitude":47.191531,"longitude":8.854914,"zip":"8853","city":"Lachen SZ","address":"Feldstrasse 6","name":"Lachen","id":595,"type":"MM"},{"latitude":47.245582,"longitude":7.958657,"zip":"6260","city":"Mehlsecken","address":"Kreuzmatte 1F","name":"Reiden - Outlet Migros","id":596,"type":"SPEZ"},{"latitude":47.414687,"longitude":9.312315,"zip":"9015","city":"St. Gallen","address":"Gaiserwaldstrasse 3","name":"St. Gallen OBI / Micasa","id":597,"type":"FM"},{"latitude":47.374151,"longitude":8.641636,"zip":"8117","city":"Fällanden","address":"Unterdorfstrasse 2","name":"Fällanden","id":598,"type":"M"},{"latitude":46.520758,"longitude":6.629308,"zip":"1003","city":"Lausanne","address":"Voie du Chariot 4-6","name":"Lausanne - Flon","id":599,"type":"M"},{"latitude":46.464197,"longitude":6.895233,"zip":"1807","city":"Blonay","address":"Route du Village 37","name":"Blonay","id":600,"type":"M"},{"latitude":46.947628,"longitude":7.439872,"zip":"3011","city":"Bern","address":"Christoffelunterführung","name":"Bern - Christoffel","id":601,"type":"M"},{"latitude":47.151541,"longitude":7.267189,"zip":"2504","city":"Biel/Bienne","address":"Schlösslistrasse 7","name":"Biel - Bözingen","id":602,"type":"M"},{"latitude":47.37439,"longitude":8.53568,"zip":"8001","city":"Zürich","address":"Löwenstrasse 35","name":"Zürich - Löwenstrasse Outdoor","id":603,"type":"SPEZ"},{"latitude":47.212879,"longitude":7.785522,"zip":"4900","city":"Langenthal","address":"Wiesenstrasse 28","name":"Langenthal","id":604,"type":"MM"},{"latitude":47.393638,"longitude":8.529181,"zip":"8037","city":"Zürich","address":"Scheffelstrasse 3","name":"Zürich - Wipkingen","id":605,"type":"M"},{"latitude":47.411919,"longitude":9.266495,"zip":"9201","city":"Gossau SG","address":"Industriestrasse 47 / BZ Gebäude E","name":"Gossau Outlet","id":607,"type":"SPEZ"},{"latitude":46.185852,"longitude":9.013294,"zip":"6500","city":"Bellinzona","address":"Via Franco Zorzi","name":"Bellinzona Outlet","id":608,"type":"SPEZ"},{"latitude":46.941112,"longitude":7.418566,"zip":"3008","city":"Bern","address":"Könizstrasse 60","name":"Bern - Fischermätteli","id":609,"type":"VOI"},{"latitude":47.123584,"longitude":7.280459,"zip":"2555","city":"Brügg BE","address":"Hauptstrasse 17","name":"Brügg","id":610,"type":"VOI"},{"latitude":46.623288,"longitude":8.039071,"zip":"3818","city":"Grindelwald","address":"Im Tuftli","name":"Grindelwald","id":611,"type":"VOI"},{"latitude":47.556121,"longitude":7.846943,"zip":"4313","city":"Möhlin","address":"Hauptstrasse 91","name":"Möhlin","id":612,"type":"M"},{"latitude":47.566937,"longitude":9.094285,"zip":"8570","city":"Weinfelden","address":"Weststrasse 27/29","name":"Weinfelden West","id":613,"type":"M"},{"latitude":47.552532,"longitude":7.592686,"zip":"4051","city":"Basel","address":"Aeschenvorstadt 24","name":"Basel - Drachen-Center","id":614,"type":"MM"},{"latitude":46.227861,"longitude":7.378547,"zip":"1950","city":"Sion","address":"Rue du Manège 2","name":"Sion Outlet","id":615,"type":"SPEZ"},{"latitude":47.32843,"longitude":7.831519,"zip":"4614","city":"Hägendorf","address":"Industriestrasse West 10/40","name":"Hägendorf Outlet","id":616,"type":"SPEZ"},{"latitude":47.363138,"longitude":8.517477,"zip":"8045","city":"Zürich","address":"Binzallee 4","name":"Zürich - Binz","id":617,"type":"MR"},{"latitude":46.473437,"longitude":6.426004,"zip":"1163","city":"Etoy","address":"Route Suisse 26","name":"Etoy","id":618,"type":"M"},{"latitude":47.64794,"longitude":9.175652,"zip":"8280","city":"Kreuzlingen","address":"Hauptstrasse 63","name":"Kreuzlingen","id":619,"type":"M"},{"latitude":47.438637,"longitude":9.056834,"zip":"9533","city":"Kirchberg SG","address":"Wilerstrasse 204","name":"Kirchberg-Stelz","id":620,"type":"M"},{"latitude":47.57724,"longitude":7.590618,"zip":"4057","city":"Basel","address":"Inselstrasse 63","name":"Basel - Inselstrasse","id":621,"type":"DMP"},{"latitude":47.300786,"longitude":8.548829,"zip":"8803","city":"Rüschlikon","address":"Zürcherstrasse 4","name":"Rüschlikon Parkside","id":622,"type":"M"},{"latitude":46.123141,"longitude":6.09769,"zip":"74 160","city":"Neydens","address":"500, route des Envignes 74","name":"Neydens  (F)","id":623,"type":"M"},{"latitude":46.22823,"longitude":6.119602,"zip":"1218","city":"Le Grand-Saconnex","address":"Rue Sonnex 20","name":"Gd Saconnex - Le Pommier","id":624,"type":"M"},{"latitude":47.422824,"longitude":9.373406,"zip":"9000","city":"St. Gallen","address":"Vadianstrasse 7","name":"St.Gallen Outdoor","id":625,"type":"SPEZ"},{"latitude":46.948015,"longitude":8.01659,"zip":"6170","city":"Schüpfheim","address":"Vormüli  1","name":"Schüpfheim","id":626,"type":"M"},{"latitude":46.809864,"longitude":7.149018,"zip":"1700","city":"Fribourg","address":"Route de Sainte-Thérèse 2a","name":"Fribourg Ste-Thérèse","id":627,"type":"MM"},{"latitude":47.269577,"longitude":7.692628,"zip":"4704","city":"Niederbipp","address":"Wydenstrasse 9","name":"Niederbipp","id":628,"type":"VOI"},{"latitude":46.573601,"longitude":6.60617,"zip":"1032","city":"Romanel-sur-Lausanne","address":"rte de Neuchâtel 10","name":"Lausanne Outlet","id":629,"type":"SPEZ"},{"latitude":47.401793,"longitude":8.045168,"zip":"5022","city":"Rombach","address":"Bibersteinstrasse 4","name":"Rombach","id":630,"type":"VOI"},{"latitude":47.37153,"longitude":7.993696,"zip":"5013","city":"Niedergösgen","address":"Aarestrasse 49","name":"VOI Niedergösgen","id":631,"type":"VOI"},{"latitude":47.028506,"longitude":7.744858,"zip":"3454","city":"Sumiswald","address":"Spitalstrasse 10","name":"VOI Sumiswald","id":632,"type":"VOI"},{"latitude":47.356338,"longitude":7.985586,"zip":"4657","city":"Dulliken","address":"Grundstrasse 1","name":"VOI Dulliken","id":633,"type":"VOI"},{"latitude":47.480524,"longitude":8.464476,"zip":"8157","city":"Dielsdorf","address":"Ruchwiesenstrasse 2","name":"Dielsdorf","id":634,"type":"MM"},{"latitude":47.411845,"longitude":8.619202,"zip":"8305","city":"Dietlikon","address":"Industriestrasse 31","name":"Dietlikon - Greenhouse","id":635,"type":"M"},{"latitude":47.09343,"longitude":9.059657,"zip":"8752","city":"Näfels","address":"Oberdorf 44","name":"Näfels","id":636,"type":"M"},{"latitude":47.379026,"longitude":8.508679,"zip":"8004","city":"Zürich","address":"Badenerstrasse  376","name":"Zürich - Albisriederplatz","id":637,"type":"M"},{"latitude":47.47481,"longitude":8.21255,"zip":"5210","city":"Windisch","address":"Bachmattstrasse 35","name":"Windisch","id":638,"type":"M"},{"latitude":47.336737,"longitude":8.024363,"zip":"5742","city":"Kölliken","address":"Hauptstrasse 24","name":"Kölliken","id":639,"type":"DMP"},{"latitude":47.19524,"longitude":8.525155,"zip":"6340","city":"Baar","address":"Bahnhofstrasse 5","name":"Baar","id":640,"type":"M"},{"latitude":47.252682,"longitude":8.69598,"zip":"8708","city":"Männedorf","address":"Alte Landstrasse 262","name":"Männedorf","id":641,"type":"M"},{"latitude":47.17078,"longitude":7.574084,"zip":"4563","city":"Gerlafingen","address":"Friedhofstrasse 1","name":"Gerlafingen","id":642,"type":"M"},{"latitude":47.38711,"longitude":8.486837,"zip":"8048","city":"Zürich","address":"Altstetterstr. 149","name":"Zürich - Altstetten SportXX","id":643,"type":"FM"},{"latitude":47.395254,"longitude":8.606033,"zip":"8600","city":"Dübendorf","address":"Zürcherstrasse 89","name":"Dübendorf","id":644,"type":"MIG"},{"latitude":47.580558,"longitude":8.51598,"zip":"8193","city":"Eglisau","address":"Schaffhauserstrasse 39","name":"Eglisau","id":645,"type":"MIG"},{"latitude":46.225048,"longitude":6.107355,"zip":"1216","city":"Cointrin","address":"Av. Louis-Casaï 74/76","name":"Cointrin","id":646,"type":"MIG"},{"latitude":47.182435,"longitude":8.471695,"zip":"6330","city":"Cham","address":"Zugerstrasse 82","name":"Cham","id":647,"type":"MIG"},{"latitude":46.764772,"longitude":6.649458,"zip":"1400","city":"Yverdon-les-Bains","address":"20, route de Lausanne","name":"Yverdon","id":648,"type":"MIG"},{"latitude":47.39805,"longitude":8.538256,"zip":"8057","city":"Zürich","address":"Bucheggstrasse 130","name":"Zürich - Buchegg","id":649,"type":"MIG"},{"latitude":46.946145,"longitude":7.384881,"zip":"3027","city":"Bern","address":"Fellerstrasse 33","name":"Bern - Bethlehem","id":650,"type":"MIG"},{"latitude":46.966124,"longitude":8.352922,"zip":"6370","city":"Stans","address":"Rotzlochstrasse 1","name":"Stans","id":651,"type":"MIG"},{"latitude":46.895971,"longitude":8.62665,"zip":"6460","city":"Altdorf UR","address":"Flüelerstrasse 154","name":"Altdorf","id":652,"type":"MIG"},{"latitude":47.304908,"longitude":7.930888,"zip":"4665","city":"Oftringen","address":"Campingweg 11","name":"Oftringen","id":653,"type":"MIG"},{"latitude":47.317356,"longitude":8.66666,"zip":"8127","city":"Forch","address":"Forchstrasse","name":"Forch","id":654,"type":"MIG"},{"latitude":47.380496,"longitude":8.674065,"zip":"8604","city":"Volketswil","address":"Industriestrasse 20a","name":"Volketswil","id":655,"type":"MIG"},{"latitude":46.668145,"longitude":7.869861,"zip":"3812","city":"Wilderswil","address":"Gsteigstrasse 6","name":"Wilderswil","id":656,"type":"MIG"},{"latitude":47.585408,"longitude":7.602715,"zip":"4016","city":"Basel","address":"Basel Nord/Weil","name":"Basel","id":657,"type":"MIG"},{"latitude":47.203763,"longitude":8.764297,"zip":"8807","city":"Freienbach","address":"Kantonsstrasse 149","name":"Freienbach","id":658,"type":"MIG"},{"latitude":47.367103,"longitude":8.494285,"zip":"8055","city":"Zürich","address":"Birmensdorferstrasse 517","name":"Zürich - Birmensdorferstr.","id":659,"type":"MIG"},{"latitude":47.17589,"longitude":8.907654,"zip":"8854","city":"Siebnen","address":"Glarnerstrasse 77","name":"Siebnen","id":660,"type":"MIG"},{"latitude":47.344979,"longitude":7.907516,"zip":"4600","city":"Olten","address":"Aarburgerstr. 115","name":"Olten - Aarburgerstr.","id":661,"type":"MIG"},{"latitude":47.544609,"longitude":9.27277,"zip":"8580","city":"Amriswil","address":"Weinfelderstrasse 130","name":"Amriswil","id":662,"type":"MIG"},{"latitude":47.461635,"longitude":8.524197,"zip":"8153","city":"Rümlang","address":"Riedmattstrasse 8","name":"Rümlang","id":663,"type":"MIG"},{"latitude":46.105535,"longitude":7.085934,"zip":"1920","city":"Martigny","address":"Rue des Avouillons 3","name":"Martigny","id":664,"type":"MIG"},{"latitude":47.562727,"longitude":9.104761,"zip":"8570","city":"Weinfelden","address":"Dufourstrasse 14","name":"Weinfelden","id":665,"type":"MIG"},{"latitude":47.438025,"longitude":8.347077,"zip":"5436","city":"Würenlos","address":"Autobahntankstelle A1/ Limmat","name":"Würenlos","id":666,"type":"MIG"},{"latitude":47.416706,"longitude":9.314279,"zip":"9030","city":"Abtwil SG","address":"Wiesenbachstrasse 3","name":"Abtwil SG","id":667,"type":"MIG"},{"latitude":47.489202,"longitude":7.598296,"zip":"4153","city":"Reinach BL","address":"Kägenstrasse 1","name":"Reinach BL","id":668,"type":"MIG"},{"latitude":46.889507,"longitude":7.311829,"zip":"3175","city":"Flamatt","address":"Bernstrasse 6","name":"Flamatt - Bernstrasse 6","id":669,"type":"MIG"},{"latitude":47.386554,"longitude":8.114222,"zip":"5502","city":"Hunzenschwil","address":"Hauptstrasse 43","name":"Hunzenschwil","id":670,"type":"MIG"},{"latitude":47.351341,"longitude":7.908644,"zip":"4600","city":"Olten","address":"Tannwaldstrasse 48","name":"Olten - Tannwaldstrasse","id":671,"type":"MIG"},{"latitude":46.224264,"longitude":7.301447,"zip":"1964","city":"Conthey","address":"Route Cantonale 25","name":"Conthey","id":672,"type":"MIG"},{"latitude":47.491472,"longitude":8.220349,"zip":"5200","city":"Brugg AG","address":"Zurzacherstrasse 83","name":"Brugg AG","id":673,"type":"MIG"},{"latitude":47.43488,"longitude":9.402074,"zip":"9000","city":"St. Gallen","address":"Rorschacherstrasse 219","name":"St. Gallen - Rorschacherstr.","id":674,"type":"MIG"},{"latitude":47.205152,"longitude":7.550746,"zip":"4528","city":"Zuchwil","address":"Luzernstrasse 4","name":"Zuchwil","id":675,"type":"MIG"},{"latitude":47.351927,"longitude":8.722683,"zip":"8610","city":"Uster","address":"Feldhofstrasse 2","name":"Uster","id":676,"type":"MIG"},{"latitude":47.414494,"longitude":8.620254,"zip":"8305","city":"Dietlikon","address":"Neue Winterthurerstrasse 15","name":"Dietlikon","id":677,"type":"MIG"},{"latitude":47.556999,"longitude":8.89629,"zip":"8500","city":"Frauenfeld","address":"Bahnhofstrasse 76a","name":"Frauenfeld - Bahnhofstrasse","id":678,"type":"MIG"},{"latitude":47.452945,"longitude":9.638032,"zip":"9430","city":"St. Margrethen SG","address":"Bahnhofplatz 1","name":"St. Margrethen - Bahnhofplatz","id":679,"type":"MIG"},{"latitude":47.374147,"longitude":9.556485,"zip":"9450","city":"Altstätten SG","address":"Bahnhofstrasse 71","name":"Altstätten","id":680,"type":"MIG"},{"latitude":47.415305,"longitude":9.189082,"zip":"9230","city":"Flawil","address":"Bahnhofplatz 8","name":"Flawil","id":681,"type":"MIG"},{"latitude":47.276448,"longitude":8.577614,"zip":"8942","city":"Oberrieden","address":"Alte Landstrasse 37","name":"Oberrieden","id":682,"type":"MIG"},{"latitude":47.511059,"longitude":8.369468,"zip":"8166","city":"Niederweningen","address":"Wehntalerstrasse 71","name":"Niederweningen","id":683,"type":"MIG"},{"latitude":47.469981,"longitude":8.510664,"zip":"8154","city":"Oberglatt ZH","address":"Kaiserstuhlstrasse 25","name":"Oberglatt","id":684,"type":"MIG"},{"latitude":47.123427,"longitude":7.278243,"zip":"2555","city":"Brügg BE","address":"Bahnhofstrasse 8","name":"Brügg","id":685,"type":"MIG"},{"latitude":47.241543,"longitude":7.96882,"zip":"6260","city":"Reiden","address":"Bahnhofstrasse 12A","name":"Reiden","id":686,"type":"MIG"},{"latitude":46.790687,"longitude":7.606186,"zip":"3627","city":"Heimberg","address":"Bahnhofstrasse 15","name":"Heimberg","id":687,"type":"MIG"},{"latitude":47.041647,"longitude":7.386034,"zip":"3054","city":"Schüpfen","address":"Bernstrasse 10","name":"Schüpfen","id":688,"type":"MIG"},{"latitude":47.377835,"longitude":8.540974,"zip":"8023","city":"Zürich","address":"Hauptbahnhof","name":"Zürich - Hauptbahnhof","id":689,"type":"MIG"},{"latitude":47.473665,"longitude":9.467864,"zip":"9403","city":"Goldach","address":"Bahnhofplatz 1","name":"Goldach - Bahnhofplatz","id":690,"type":"MIG"},{"latitude":47.258887,"longitude":8.678877,"zip":"8707","city":"Uetikon am See","address":"Alte Landstrasse 144","name":"Uetikon am See","id":691,"type":"MIG"},{"latitude":47.329605,"longitude":8.030278,"zip":"5742","city":"Kölliken","address":"Autobahnraststätte Kölliken Nord","name":"Kölliken","id":692,"type":"MIG"},{"latitude":47.402037,"longitude":8.406908,"zip":"8953","city":"Dietikon","address":"Poststrasse/Zürcherstrasse Haus D","name":"Dietikon - Poststrasse","id":693,"type":"MIG"},{"latitude":46.79495,"longitude":9.821402,"zip":"7270","city":"Davos Platz","address":"Promenade 50","name":"Davos","id":694,"type":"MIG"},{"latitude":47.411082,"longitude":8.590247,"zip":"8304","city":"Wallisellen","address":"Industriestrasse 41","name":"Wallisellen - Industriestr.","id":695,"type":"MIG"},{"latitude":46.566121,"longitude":6.558933,"zip":"1029","city":"Villars-Ste-Croix","address":"Route de Cossonay 3","name":"Villars-Ste-Croix","id":696,"type":"MIG"},{"latitude":47.54827,"longitude":7.546307,"zip":"4123","city":"Allschwil","address":"Binningerstrasse 91","name":"Allschwil - Binningerstr.","id":697,"type":"MIG"},{"latitude":46.943105,"longitude":7.370699,"zip":"3027","city":"Bern","address":"Riedbachstrasse 104","name":"Bern - Westside","id":698,"type":"MIG"},{"latitude":47.411483,"longitude":9.336069,"zip":"9014","city":"St. Gallen","address":"Zürcherstrasse 205","name":"St. Gallen - Zürcherstr. 205","id":699,"type":"MIG"},{"latitude":46.236261,"longitude":7.874957,"zip":"3922","city":"Stalden VS","address":"Talstrasse","name":"Stalden","id":700,"type":"MIG"},{"latitude":47.515555,"longitude":8.680389,"zip":"8408","city":"Winterthur","address":"Wülflingerstrasse 393","name":"Winterthur","id":701,"type":"MIG"},{"latitude":47.511455,"longitude":8.544345,"zip":"8180","city":"Bülach","address":"Zürichstrasse 57","name":"Bülach","id":702,"type":"MIG"},{"latitude":46.537662,"longitude":6.601205,"zip":"1008","city":"Prilly","address":"Rte de Cossonay 66","name":"Prilly - rte de Cossonay","id":703,"type":"MIG"},{"latitude":46.600534,"longitude":7.075182,"zip":"1635","city":"La Tour-de-Trême","address":"Rte de Pra-Riond 4","name":"La Tour-de-Trême","id":704,"type":"MIG"},{"latitude":47.415994,"longitude":9.345217,"zip":"9000","city":"St. Gallen","address":"Zürcherstrasse 114","name":"St. Gallen - Zürcherstrasse 114","id":705,"type":"MIG"},{"latitude":47.173439,"longitude":8.100098,"zip":"6210","city":"Sursee","address":"Zeughausstrasse 38","name":"Sursee","id":706,"type":"MIG"},{"latitude":46.765607,"longitude":7.624526,"zip":"3613","city":"Steffisburg","address":"Bernstrasse 39","name":"Steffisburg","id":707,"type":"MIG"},{"latitude":46.889707,"longitude":7.323269,"zip":"3175","city":"Flamatt","address":"Bernstrasse 50","name":"Flamatt - Bernstrasse 50","id":708,"type":"MIG"},{"latitude":47.211192,"longitude":7.523803,"zip":"4500","city":"Solothurn","address":"Bielstrasse 89","name":"Solothurn","id":709,"type":"MIG"},{"latitude":47.438814,"longitude":9.056463,"zip":"9533","city":"Kirchberg SG","address":"Wilerstrasse 208","name":"Kirchberg","id":710,"type":"MIG"},{"latitude":47.507406,"longitude":7.721332,"zip":"4414","city":"Füllinsdorf","address":"Rheinstrasse 46","name":"Füllinsdorf","id":711,"type":"MIG"},{"latitude":46.034777,"longitude":8.924752,"zip":"6928","city":"Manno","address":"Strada Cantonale","name":"Manno","id":712,"type":"MIG"},{"latitude":46.266964,"longitude":6.953123,"zip":"1868","city":"Collombey","address":"Route du Montagnier","name":"Collombey","id":713,"type":"MIG"},{"latitude":47.06828,"longitude":7.60053,"zip":"3400","city":"Burgdorf","address":"Kirchbergstrasse 235","name":"Burgdorf","id":714,"type":"MIG"},{"latitude":47.182261,"longitude":8.484041,"zip":"6300","city":"Zug","address":"Chollerstrasse 1","name":"Zug","id":715,"type":"MIG"},{"latitude":47.381062,"longitude":8.510095,"zip":"8004","city":"Zürich","address":"Bullingerstrasse 73","name":"Zürich - Hardau","id":716,"type":"MIG"},{"latitude":47.355384,"longitude":8.32622,"zip":"5620","city":"Bremgarten AG","address":"Wohlerstrasse 18","name":"Bremgarten","id":717,"type":"MIG"},{"latitude":47.482347,"longitude":8.278914,"zip":"5400","city":"Baden","address":"Bruggerstrasse 194","name":"Baden","id":718,"type":"MIG"},{"latitude":47.035419,"longitude":8.29652,"zip":"6010","city":"Kriens","address":"Mattenhof","name":"Kriens","id":719,"type":"MIG"},{"latitude":46.582285,"longitude":6.601412,"zip":"1033","city":"Cheseaux-sur-Lausanne","address":"Route de Genève 9a","name":"Cheseaux","id":720,"type":"MIG"},{"latitude":46.527131,"longitude":6.602893,"zip":"1008","city":"Prilly","address":"Ch. du Viaduc 1","name":"Prilly - ch. du Viaduc","id":721,"type":"MIG"},{"latitude":46.821686,"longitude":7.151668,"zip":"1763","city":"Granges-Paccot","address":"Route de Morat 130","name":"Granges-Paccot","id":722,"type":"MIG"},{"latitude":47.365201,"longitude":8.429718,"zip":"8903","city":"Birmensdorf ZH","address":"Industriestrasse 1","name":"Birmensdorf","id":723,"type":"MIG"},{"latitude":47.009821,"longitude":6.973035,"zip":"2068","city":"Hauterive NE","address":"Rte des Rouges-Terres 22-24","name":"Hauterive","id":724,"type":"MIG"},{"latitude":46.2187,"longitude":6.113032,"zip":"1209","city":"Genève","address":"Av. Louis Casaï 27","name":"Genève - Balexert","id":725,"type":"MIG"},{"latitude":47.185048,"longitude":8.397366,"zip":"5643","city":"Sins","address":"Eichfeld 1","name":"Sins","id":726,"type":"MIG"},{"latitude":46.519237,"longitude":6.625847,"zip":"1003","city":"Lausanne","address":"Chemin de Mornex 36","name":"Lausanne - Montbenon","id":727,"type":"MIG"},{"latitude":46.970073,"longitude":9.592098,"zip":"7302","city":"Landquart","address":"Prättigauerstrasse","name":"Landquart","id":728,"type":"MIG"},{"latitude":47.478514,"longitude":9.47548,"zip":"9403","city":"Goldach","address":"St. Gallerstrasse 34","name":"Goldach - St.Gallerstr.","id":729,"type":"MIG"},{"latitude":47.45616,"longitude":8.283048,"zip":"5405","city":"Baden","address":"Zelgweg 17","name":"Baden-Dättwil","id":730,"type":"MIG"},{"latitude":47.561838,"longitude":8.905596,"zip":"8500","city":"Frauenfeld","address":"Zürcherstrasse 276","name":"Frauenfeld - Zürcherstrasse 276","id":731,"type":"MIG"},{"latitude":46.923308,"longitude":7.458035,"zip":"3084","city":"Wabern","address":"Seftigenstrasse 350","name":"Wabern","id":732,"type":"MIG"},{"latitude":47.224963,"longitude":8.943258,"zip":"8716","city":"Schmerikon","address":"Bahnhofstrasse 2","name":"Schmerikon - Bahnhofstrasse","id":733,"type":"MIG"},{"latitude":47.455323,"longitude":9.04902,"zip":"9500","city":"Wil SG","address":"Toggenburgerstrasse 129","name":"Wil - Toggenburgerstr.","id":734,"type":"MIG"},{"latitude":47.190485,"longitude":8.476812,"zip":"6312","city":"Steinhausen","address":"Hinterbergstrasse 39","name":"Steinhausen","id":735,"type":"MIG"},{"latitude":46.533666,"longitude":6.585285,"zip":"1020","city":"Renens VD","address":"Rue du Silo 7","name":"Renens","id":736,"type":"MIG"},{"latitude":47.072171,"longitude":8.279231,"zip":"6020","city":"Emmenbrücke","address":"Gerliswilstrasse 24","name":"Emmenbrücke","id":737,"type":"MIG"},{"latitude":47.421147,"longitude":7.078817,"zip":"2900","city":"Porrentruy","address":"Rue Xavier-Stockmar 6","name":"Porrentruy","id":738,"type":"MIG"},{"latitude":47.220644,"longitude":8.661069,"zip":"8820","city":"Wädenswil","address":"A3 Herrlisberg","name":"Wädenswil A3","id":739,"type":"MIG"},{"latitude":47.518479,"longitude":8.719947,"zip":"8400","city":"Winterthur","address":"Schaffhauserstrasse 152","name":"Winterthur - Rosenberg","id":740,"type":"MIG"},{"latitude":46.203067,"longitude":6.186584,"zip":"1224","city":"Chêne-Bougeries","address":"Ch. de la Gradelle 40","name":"Chêne-Bougeries","id":741,"type":"MIG"},{"latitude":46.673718,"longitude":6.570618,"zip":"1372","city":"Bavois","address":"Restoroute de Bavois","name":"Bavois-Alpes","id":742,"type":"MIG"},{"latitude":46.206206,"longitude":6.109475,"zip":"1219","city":"Le Lignon","address":"Avenue de l'Ain 5","name":"Le Lignon","id":743,"type":"MIG"},{"latitude":47.563152,"longitude":8.907719,"zip":"8500","city":"Frauenfeld","address":"Zürcherstrasse 291","name":"Frauenfeld - Zürcherstrasse 291","id":744,"type":"MIG"},{"latitude":47.495388,"longitude":8.712662,"zip":"8406","city":"Winterthur","address":"Zürcherstrasse 48","name":"Winterthur - Zürcherstrasse 48","id":745,"type":"MIG"},{"latitude":47.43848,"longitude":8.347835,"zip":"5436","city":"Würenlos","address":"Autobahntankstelle A1 / Wald","name":"Würenlos","id":746,"type":"MIG"},{"latitude":47.297747,"longitude":8.316431,"zip":"5623","city":"Boswil","address":"Muristrasse 8","name":"Boswil","id":747,"type":"MIG"},{"latitude":47.074783,"longitude":9.486227,"zip":"9477","city":"Trübbach","address":"Staatsstrasse 10","name":"Trübbach","id":748,"type":"MIG"},{"latitude":47.229881,"longitude":8.961979,"zip":"8716","city":"Schmerikon","address":"St. Gallerstrasse 75a","name":"Schmerikon - St.Gallerstrasse","id":749,"type":"MIG"},{"latitude":46.228794,"longitude":7.345247,"zip":"1950","city":"Sion","address":"Route de Lausanne 100","name":"Sion","id":750,"type":"MIG"},{"latitude":47.545961,"longitude":7.55366,"zip":"4123","city":"Allschwil","address":"Stockbrunnenrain 2","name":"Allschwil - Stockbrunnenrain","id":751,"type":"MIG"},{"latitude":47.549469,"longitude":7.62558,"zip":"4127","city":"Birsfelden","address":"Rheinfelderstr. 10","name":"Birsfelden","id":752,"type":"MIG"},{"latitude":47.419538,"longitude":8.55634,"zip":"8052","city":"Zürich","address":"Thurgauerstrasse 100","name":"Zürich - Thurgauerstrasse","id":753,"type":"MIG"},{"latitude":46.182009,"longitude":6.097736,"zip":"1213","city":"Onex","address":"Rte de Chancy 142","name":"Onex","id":754,"type":"MIG"},{"latitude":46.227068,"longitude":6.078411,"zip":"1217","city":"Meyrin","address":"Rte de Meyrin 248","name":"Meyrin","id":755,"type":"MIG"},{"latitude":47.496448,"longitude":7.564345,"zip":"4106","city":"Therwil","address":"Reinacherstrasse 49A","name":"Therwil","id":756,"type":"MIG"},{"latitude":46.295832,"longitude":6.167195,"zip":"1295","city":"Mies","address":"Route Suisse 3","name":"Mies","id":757,"type":"MIG"},{"latitude":47.054469,"longitude":8.389689,"zip":"6045","city":"Meggen","address":"Gotthardstrasse 45","name":"Meggen","id":758,"type":"MIG"},{"latitude":47.033988,"longitude":8.264922,"zip":"6010","city":"Kriens","address":"Obernauerstrasse 47","name":"Kriens","id":759,"type":"MIG"},{"latitude":47.407863,"longitude":8.601928,"zip":"8304","city":"Wallisellen","address":"Husacherstrasse 2","name":"Wallisellen - Husacherstr.","id":760,"type":"MIG"},{"latitude":46.517252,"longitude":6.512371,"zip":"1110","city":"Morges","address":"Route de Lausanne 73","name":"Morges","id":761,"type":"MIG"},{"latitude":46.462495,"longitude":6.335042,"zip":"1180","city":"Rolle","address":"Route de la Vallée 7","name":"Rolle","id":762,"type":"MIG"},{"latitude":47.384135,"longitude":8.658777,"zip":"8603","city":"Schwerzenbach","address":"Bahnstrasse 7a","name":"Schwerzenbach","id":763,"type":"MIG"},{"latitude":46.181468,"longitude":9.001497,"zip":"6513","city":"Monte Carasso","address":"Autostrada Sud","name":"Monte Carasso","id":764,"type":"MIG"},{"latitude":47.271481,"longitude":8.438683,"zip":"8910","city":"Affoltern am Albis","address":"Autobahnraststätte A4","name":"Affoltern-am-Albis A4","id":765,"type":"MIG"},{"latitude":46.788065,"longitude":6.620708,"zip":"1442","city":"Montagny-près-Yverdon","address":"En Chamard 16","name":"Montagny","id":766,"type":"MIG"},{"latitude":46.198372,"longitude":6.212903,"zip":"1226","city":"Thônex","address":"Route d'Ambilly 3","name":"Thônex","id":767,"type":"MIG"},{"latitude":47.548826,"longitude":9.371745,"zip":"9322","city":"Egnach","address":"Romanshornerstr. 129","name":"Egnach","id":768,"type":"MIG"},{"latitude":46.166692,"longitude":9.001596,"zip":"6528","city":"Camorino","address":"Via Cantonale","name":"Camorino","id":769,"type":"MIG"},{"latitude":46.213704,"longitude":9.039529,"zip":"6500","city":"Bellinzona","address":"Autostrada Nord","name":"Bellinzona","id":770,"type":"MIG"},{"latitude":47.351959,"longitude":8.558498,"zip":"8008","city":"Zürich","address":"Horneggstrasse 3","name":"Zürich - Hornegg","id":771,"type":"MIG"},{"latitude":47.437246,"longitude":8.474422,"zip":"8105","city":"Regensdorf","address":"Feldstrasse 6","name":"Regensdorf","id":772,"type":"MIG"},{"latitude":47.19613,"longitude":8.751956,"zip":"8832","city":"Wollerau","address":"Autobahn Fuchsberg","name":"Wollerau","id":773,"type":"MIG"},{"latitude":47.383893,"longitude":8.395618,"zip":"8953","city":"Dietikon","address":"Bernstrasse 386","name":"Dietikon - Bernstrasse","id":774,"type":"MIG"},{"latitude":46.681729,"longitude":7.085374,"zip":"1644","city":"Avry-devant-Pont","address":"Restoroute de la Gruyère","name":"Avry-devant-Pont","id":775,"type":"MIG"},{"latitude":47.639646,"longitude":9.200587,"zip":"8280","city":"Kreuzlingen","address":"Romanshornerstr. 111","name":"Kreuzlingen","id":776,"type":"MIG"},{"latitude":46.535206,"longitude":6.655394,"zip":"1010","city":"Lausanne","address":"Route d'Oron 37","name":"Lausanne - Valmont","id":777,"type":"MIG"},{"latitude":47.454885,"longitude":9.638218,"zip":"9430","city":"St. Margrethen SG","address":"Grenzstrasse 31","name":"St. Margrethen - Grenzstrasse","id":778,"type":"MIG"},{"latitude":47.740184,"longitude":8.714751,"zip":"8240","city":"Thayngen","address":"Grenzstrasse 72","name":"Thayngen","id":779,"type":"MIG"},{"latitude":47.438906,"longitude":7.53799,"zip":"4222","city":"Zwingen","address":"Reckholdstrasse 2","name":"Zwingen","id":780,"type":"MIG"},{"latitude":47.381029,"longitude":8.492105,"zip":"8047","city":"Zürich","address":"Flurstrasse 95","name":"Zürich - Flurstr.","id":781,"type":"MIG"},{"latitude":46.474389,"longitude":6.41853,"zip":"1163","city":"Etoy","address":"Rte Noyer Girod 1","name":"Etoy","id":782,"type":"MIG"},{"latitude":47.281767,"longitude":7.380666,"zip":"2740","city":"Moutier","address":"Av. de la gare","name":"Moutier","id":783,"type":"MIG"},{"latitude":47.51703,"longitude":8.650405,"zip":"8422","city":"Pfungen","address":"Weiacherstrasse 1","name":"Pfungen","id":784,"type":"M"},{"latitude":46.281233,"longitude":7.513406,"zip":"3960","city":"Sierre","address":"Rte des Lacustres","name":"Sierre Rossfeld","id":785,"type":"FM"},{"latitude":46.325012,"longitude":7.990145,"zip":"3904","city":"Naters","address":"Kelchbachstrasse 16","name":"Naters","id":786,"type":"M"},{"latitude":47.500952,"longitude":8.724717,"zip":"8400","city":"Winterthur","address":"Bahnhofplatz 15/17","name":"Winterthur - Bahnhofplatz","id":788,"type":"MIG"},{"latitude":47.400995,"longitude":8.60341,"zip":"8600","city":"Dübendorf","address":"Neugutstrasse 83","name":"Dübendorf - Hochbord Nord","id":789,"type":"FM"},{"latitude":47.445325,"longitude":9.141805,"zip":"9244","city":"Niederuzwil","address":"Raiffeisenplatz Haus 2","name":"Niederuzwil","id":790,"type":"MIG"},{"latitude":47.412019,"longitude":9.252437,"zip":"9200","city":"Gossau SG","address":"Stadtbühlstr. 2","name":"Gossau","id":791,"type":"MIG"},{"latitude":47.356774,"longitude":8.523102,"zip":"8045","city":"Zürich","address":"Kalanderplatz 1","name":"Zürich - Sihlcity Outdoor","id":792,"type":"SPEZ"},{"latitude":47.236397,"longitude":7.771762,"zip":"4912","city":"Aarwangen","address":"Langenthalstrasse","name":"VOI Aarwangen","id":793,"type":"VOI"},{"latitude":47.518504,"longitude":8.720078,"zip":"8400","city":"Winterthur","address":"Schaffhauserstrasse 152","name":"Winterthur - Rosenberg","id":794,"type":"MM"},{"latitude":47.182405,"longitude":7.983823,"zip":"6243","city":"Egolzwil","address":"Grosmatt 1","name":"Egolzwil - Schötz","id":795,"type":"M"},{"latitude":47.051814,"longitude":7.509861,"zip":"3303","city":"Jegenstorf","address":"Solothurnerstrasse 24","name":"VOI Jegenstorf","id":796,"type":"VOI"},{"latitude":46.474291,"longitude":6.418214,"zip":"1163","city":"Etoy","address":"Chemin Noyer-Girod 3","name":"Etoy (marché spécialisé)","id":797,"type":"FM"},{"latitude":47.405518,"longitude":8.008653,"zip":"5018","city":"Erlinsbach  AG","address":"Zentrum Rössli","name":"Erlinsbach","id":798,"type":"M"},{"latitude":47.386777,"longitude":8.176843,"zip":"5600","city":"Lenzburg","address":"Bachstrasse 15","name":"Lenzburg","id":799,"type":"MM"},{"latitude":47.27351,"longitude":8.911873,"zip":"8636","city":"Wald ZH","address":"Rütistrasse 29","name":"Wald","id":800,"type":"MIG"},{"latitude":47.485721,"longitude":8.45166,"zip":"8157","city":"Dielsdorf","address":"Wehntalerstrasse 4","name":"Dielsdorf","id":801,"type":"MIG"},{"latitude":47.537457,"longitude":7.571964,"zip":"4102","city":"Binningen","address":"Hauptstrasse 129","name":"Binningen","id":802,"type":"MIG"},{"latitude":46.851303,"longitude":9.512819,"zip":"7000","city":"Chur","address":"Rheinfelsstrasse 2","name":"Chur","id":803,"type":"MIG"},{"latitude":46.798565,"longitude":7.122913,"zip":"1752","city":"Villars-sur-Glâne","address":"rte de Moncor 8","name":"Villars-sur-Glâne","id":804,"type":"MIG"},{"latitude":46.306042,"longitude":7.750937,"zip":"3940","city":"Steg VS","address":"Kantonsstrasse 30","name":"Steg","id":805,"type":"MIG"},{"latitude":47.35923,"longitude":8.526422,"zip":"8002","city":"Zürich","address":"Waffenplatzstrasse 40","name":"Zürich - Waffenplatz","id":806,"type":"MIG"},{"latitude":45.831833,"longitude":9.031846,"zip":"6830","city":"Chiasso","address":"Palazzo Stazione, Via Motta","name":"Chiasso","id":807,"type":"MIG"},{"latitude":47.191267,"longitude":7.389528,"zip":"2540","city":"Grenchen","address":"Nordbahnhofstrasse 43","name":"Grenchen Nord","id":808,"type":"MIG"},{"latitude":46.743897,"longitude":7.605378,"zip":"3604","city":"Thun","address":"Weststrasse 14","name":"Thun - Panorama Center","id":809,"type":"FM"},{"latitude":47.013211,"longitude":7.659519,"zip":"3415","city":"Hasle-Rüegsau","address":"Emmenau 3","name":"Hasle Rüegsau","id":810,"type":"M"},{"latitude":47.477569,"longitude":9.488972,"zip":"9400","city":"Rorschach","address":"Trischlistrasse 15","name":"Rorschach - Trischliplatz","id":812,"type":"MM"},{"latitude":47.190342,"longitude":7.40576,"zip":"2540","city":"Grenchen","address":"Maienstrasse 6","name":"Grenchen Outlet","id":813,"type":"SPEZ"},{"latitude":46.02306,"longitude":8.967502,"zip":"6963","city":"Pregassona","address":"Via delle scuole","name":"Pregassona","id":814,"type":"M"},{"latitude":46.059142,"longitude":8.930437,"zip":"6807","city":"Taverne","address":"Via Brüsighell 6","name":"Taverne","id":815,"type":"FM"},{"latitude":46.245287,"longitude":8.705885,"zip":"6673","city":"Maggia","address":"Via Cantonale","name":"Maggia","id":816,"type":"M"},{"latitude":46.385327,"longitude":6.933804,"zip":"1844","city":"Villeneuve VD","name":"Outlet Villeneuve","id":817,"type":"SPEZ"},{"latitude":47.079201,"longitude":7.303264,"zip":"3250","city":"Lyss","address":"Steinweg 28","name":"Lyss Lyssbachpark","id":818,"type":"MM"},{"latitude":47.088729,"longitude":7.580836,"zip":"3422","city":"Kirchberg BE","address":"Solothurnstrasse 17","name":"Kirchberg","id":819,"type":"MM"},{"latitude":47.234975,"longitude":8.63663,"zip":"8820","city":"Wädenswil","address":"Rütistrasse 1","name":"Wädenswil Zürisee Center","id":820,"type":"FM"},{"latitude":47.398395,"longitude":8.446849,"zip":"8952","city":"Schlieren","address":"Güterstrasse 5","name":"Schlieren - Zentrum","id":821,"type":"M"},{"latitude":47.408127,"longitude":8.406989,"zip":"8953","city":"Dietikon","address":"Überlandstrasse 22","name":"Dietikon - Limmatfeld","id":822,"type":"M"},{"latitude":47.403596,"longitude":8.497377,"zip":"8049","city":"Zürich","address":"Regensdorferstrasse 20","name":"Zürich - Höngg","id":823,"type":"M"},{"latitude":47.141027,"longitude":8.428388,"zip":"6343","city":"Rotkreuz","address":"Buonaserstrasse 1","name":"Rotkreuz","id":824,"type":"M"},{"latitude":46.293746,"longitude":7.907017,"zip":"3931","city":"Eyholz","address":"Alte Kantonsstrasse 7","name":"Eyholz - Outlet","id":825,"type":"SPEZ"},{"latitude":46.136189,"longitude":7.119598,"zip":"1926","city":"Fully","address":"Rue de Provence 4","name":"Fully","id":826,"type":"M"},{"latitude":45.971216,"longitude":8.925998,"zip":"6916","city":"Grancia","address":"Parco Commerciale","name":"Grancia Outlet","id":827,"type":"SPEZ"},{"latitude":47.508019,"longitude":8.760657,"zip":"8404","city":"Winterthur","address":"Frauenfelderstrasse 23","name":"Winterthur - Oberwinterthur","id":828,"type":"MIG"},{"latitude":47.012044,"longitude":7.010915,"zip":"2074","city":"Marin-Epagnier","address":"Route des Perveuils 2","name":"Marin","id":829,"type":"MIG"},{"latitude":47.420866,"longitude":8.507587,"zip":"8046","city":"Zürich","address":"S-Bahn Riedenhaldenstrasse","name":"Zürich - Affoltern","id":830,"type":"MIG"},{"latitude":47.420865,"longitude":8.502628,"zip":"8046","city":"Zürich","address":"Wehntalerstrasse 586c","name":"Zürich - Furttal","id":831,"type":"MIG"},{"latitude":46.811728,"longitude":7.13709,"zip":"1762","city":"Givisiez","address":"Impasse de la Colline 2","name":"Givisiez","id":832,"type":"MIG"},{"latitude":47.419216,"longitude":9.234386,"zip":"9200","city":"Gossau SG","address":"Wilerstrasse 90","name":"Gossau - Wilerstrasse","id":833,"type":"MIG"},{"latitude":45.998056,"longitude":8.905662,"zip":"6982","city":"Agno","address":"Via Lugano 21","name":"Agno","id":834,"type":"MIG"},{"latitude":47.503998,"longitude":8.772153,"zip":"8409","city":"Winterthur","address":"Hintermühlenstrasse 4","name":"Winterthur - Hegi","id":835,"type":"M"},{"latitude":47.391748,"longitude":8.051601,"zip":"5000","city":"Aarau","address":"Bahnhofplatz 4","name":"Aarau","id":836,"type":"MIG"},{"latitude":47.015216,"longitude":8.646355,"zip":"6438","city":"Ibach","address":"Mythen Center","name":"Ibach","id":837,"type":"MIG"},{"latitude":47.38564,"longitude":8.531973,"zip":"8005","city":"Zürich","address":"Sihlquai 155","name":"Zürich - Sihlquai","id":838,"type":"MIG"},{"latitude":46.754039,"longitude":7.627569,"zip":"3600","city":"Thun","address":"Frutigenstrasse 18","name":"Thun","id":839,"type":"MIG"},{"latitude":47.258491,"longitude":8.589906,"zip":"8810","city":"Horgen","address":"Oberdorfstrasse 50","name":"Horgen","id":840,"type":"MIG"},{"latitude":47.398442,"longitude":8.447505,"zip":"8952","city":"Schlieren","address":"Güterstrasse 3","name":"Schlieren","id":841,"type":"MIG"},{"latitude":46.744329,"longitude":7.613974,"zip":"3600","city":"Thun","address":"Weststrasse 10","name":"Thun - Weststrasse","id":842,"type":"MIG"},{"latitude":47.483019,"longitude":8.208128,"zip":"5200","city":"Brugg AG","address":"Hauptstrasse 2","name":"Brugg SportXX","id":843,"type":"SPEZ"},{"latitude":47.088162,"longitude":8.112793,"zip":"6017","city":"Ruswil","address":"Rüediswilerstrasse 79","name":"Ruswil-Rüediswil","id":844,"type":"M"},{"latitude":47.359743,"longitude":8.593964,"zip":"8053","city":"Zürich","address":"Loorenstrasse 35","name":"Zürich - Witikon","id":845,"type":"VOI"},{"latitude":47.315591,"longitude":9.563437,"zip":"9463","city":"Oberriet SG","address":"Staatsstrasse 56","name":"Oberriet","id":846,"type":"M"},{"latitude":47.599946,"longitude":9.000355,"zip":"8555","city":"Müllheim Dorf","address":"Thurstrasse 3","name":"Müllheim","id":847,"type":"M"},{"latitude":47.481079,"longitude":8.464723,"zip":"8157","city":"Dielsdorf","address":"Ruchwiesenstrasse 1","name":"Dielsdorf","id":848,"type":"MIG"},{"latitude":46.936643,"longitude":7.475187,"zip":"3006","city":"Bern","address":"Egghölzlistrasse 1","name":"Bern - Egghölzli","id":849,"type":"MIG"},{"latitude":47.391753,"longitude":8.051622,"zip":"5000","city":"Aarau","address":"Bahnhofplatz 4","name":"bake away Aarau","id":850,"type":"MIG"},{"latitude":46.154627,"longitude":8.962539,"zip":"6592","city":"S. Antonino","address":"Centro Commerciale","name":"Sant' Antonino","id":851,"type":"MIG"},{"latitude":46.585347,"longitude":7.648384,"zip":"3714","city":"Frutigen","address":"Kanderstegstrasse 31","name":"Frutigen","id":852,"type":"M"},{"latitude":46.933938,"longitude":8.27622,"zip":"6055","city":"Alpnach Dorf","address":"Untere Gründlistrasse 21","name":"Outlet Alpnach","id":853,"type":"SPEZ"},{"latitude":46.440996,"longitude":6.893507,"zip":"1815","city":"Clarens","address":"Rue du Léman  9","name":"Clarens - Centre","id":854,"type":"M"},{"latitude":47.484874,"longitude":7.731252,"zip":"4410","city":"Liestal","address":"Bahnhofplatz 11","name":"Liestal","id":855,"type":"MIG"},{"latitude":47.685604,"longitude":8.621418,"zip":"8212","city":"Neuhausen am Rheinfall","address":"Schaffhauserstrasse 38","name":"Neuhausen am Rheinfall","id":856,"type":"MIG"},{"latitude":46.673347,"longitude":6.569393,"zip":"1372","city":"Bavois","address":"Restoroute de Bavois","name":"Bavois-Jura","id":857,"type":"MIG"},{"latitude":47.450046,"longitude":8.539178,"zip":"8153","city":"Rümlang","address":"Hofwiesenstrasse 40","name":"Rümlang Hofwisencenter","id":858,"type":"M"},{"latitude":46.214816,"longitude":6.081264,"zip":"1214","city":"Vernier","address":"Route de Peney 2-4","name":"Vernier - Arcenter","id":859,"type":"M"},{"latitude":46.849192,"longitude":9.532159,"zip":"7000","city":"Chur","address":"Poststrasse  22","name":"Chur Outdoor","id":860,"type":"SPEZ"},{"latitude":47.396093,"longitude":8.486409,"zip":"8064","city":"Zürich","address":"Grünauring 37","name":"Zürich - Grünau","id":861,"type":"VOI"},{"latitude":47.403031,"longitude":8.498247,"zip":"8049","city":"Zürich","address":"Kappenbühlweg 5","name":"Alnatura Zürich Höngg","id":862,"type":"M"},{"latitude":47.391258,"longitude":8.487473,"zip":"8048","city":"Zürich","address":"Hohlstrasse 600","name":"Zürich - Altstetten M-Express","id":863,"type":"M"},{"latitude":47.512397,"longitude":9.432539,"zip":"9320","city":"Arbon","address":"St. Gallerstrasse 6","name":"Arbon","id":864,"type":"MM"},{"latitude":46.111507,"longitude":7.076589,"zip":"1920","city":"Martigny","address":"Avenue de Fully 63","name":"Martigny Quartz Center","id":865,"type":"FM"},{"latitude":47.239078,"longitude":7.821892,"zip":"4914","city":"Roggwil BE","name":"VOI Roggwil","id":866,"type":"VOI"},{"latitude":46.198381,"longitude":6.142804,"zip":"1205","city":"Genève","address":"Rue du Conseil-Général 20","name":"Print Shop Plainpalais","id":867,"type":"SPEZ"},{"latitude":47.371524,"longitude":8.082204,"zip":"5034","city":"Suhr","address":"Bahnhofstrasse 1","name":"Suhr","id":868,"type":"MIG"},{"latitude":47.271784,"longitude":8.341915,"zip":"5630","city":"Muri AG","address":"Kirchfeldstrasse 8","name":"Muri  AG","id":869,"type":"MM"},{"latitude":47.225559,"longitude":8.818171,"zip":"8640","city":"Rapperswil SG","address":"Untere Bahnhofstrasse  19","name":"Rapperswil - Zentrum","id":870,"type":"M"},{"latitude":46.530757,"longitude":9.872523,"zip":"7503","city":"Samedan","address":"Cho d'Punt 10","name":"Samedan","id":871,"type":"MIG"},{"latitude":46.739732,"longitude":7.291242,"zip":"1716","city":"Plaffeien","address":"Obere Matte 9","name":"Plaffeien","id":872,"type":"DMP"},{"latitude":47.031211,"longitude":8.30412,"zip":"6005","city":"Luzern","address":"Zihlmattweg 46","name":"Luzern - Allmend","id":873,"type":"M"},{"latitude":46.388756,"longitude":6.221193,"zip":"1260","city":"Nyon","address":"chemin de la Fontaine 5","name":"Nyon - Porte de Nyon","id":874,"type":"FM"},{"latitude":47.369484,"longitude":8.081117,"zip":"5034","city":"Suhr","address":"Hintere Bahnhofstrasse 3","name":"Suhr Outlet","id":875,"type":"SPEZ"},{"latitude":46.932565,"longitude":7.504302,"zip":"3073","city":"Gümligen","address":"Turbenweg 1","name":"Gümligen","id":876,"type":"M"},{"latitude":46.060327,"longitude":8.931606,"zip":"6807","city":"Taverne","address":"Via Cantonale","name":"Taverne","id":877,"type":"M"},{"latitude":47.045432,"longitude":9.44504,"zip":"7320","city":"Sargans","address":"Bahnhofpark 1","name":"Sargans","id":878,"type":"MIG"},{"latitude":47.644066,"longitude":9.18446,"zip":"8280","city":"Kreuzlingen","address":"Weingartenstrasse 23/25","name":"Kreuzlingen / Pouletc.","id":879,"type":"MR"},{"latitude":47.236455,"longitude":8.776327,"zip":"8714","city":"Feldbach","address":"Oberschirmensee 8","name":"Feldbach","id":880,"type":"MIG"},{"latitude":47.547375,"longitude":7.953514,"zip":"4332","city":"Stein AG","address":"Schaffhauserstrasse 46","name":"Stein","id":881,"type":"MIG"},{"latitude":47.406654,"longitude":8.411206,"zip":"8951","city":"Fahrweid","address":"Überlandstrasse","name":"Fahrweid - Limmatbrücke","id":882,"type":"MIG"},{"latitude":46.516803,"longitude":6.607352,"zip":"1007","city":"Lausanne","address":"Av. des Figuiers 22","name":"Lausanne - La Maladière","id":883,"type":"MIG"},{"latitude":47.456147,"longitude":8.43968,"zip":"8107","city":"Buchs ZH","address":"Meierwiesenstrasse 20","name":"Buchs ZH","id":884,"type":"VOI"},{"latitude":46.2927,"longitude":7.879882,"zip":"3930","city":"Visp","address":"Brückenweg 10","name":"Visp","id":885,"type":"MM"},{"latitude":47.390282,"longitude":8.491165,"zip":"8048","city":"Zürich","address":"Hohlstrasse 544","name":"Zürich - Hohlstrasse","id":886,"type":"MIG"},{"latitude":47.396141,"longitude":8.440376,"zip":"8952","city":"Schlieren","address":"Badenerstrasse 41","name":"Schlieren","id":887,"type":"MIG"},{"latitude":47.429367,"longitude":8.687153,"zip":"8307","city":"Effretikon","address":"Rikonerstrasse 20","name":"Effretikon","id":888,"type":"MIG"},{"latitude":46.960681,"longitude":7.453261,"zip":"3014","city":"Bern","address":"Scheibenstrasse 27","name":"Bern - Breitenrain (Provisorium)","id":889,"type":"M"},{"latitude":47.396077,"longitude":8.623146,"zip":"8600","city":"Dübendorf","address":"Usterstrasse 44","name":"Dübendorf - Zur Schmiede","id":890,"type":"MIG"},{"latitude":47.42869,"longitude":8.559103,"zip":"8152","city":"Glattbrugg","address":"Schaffhauserstrasse 40","name":"Glattbrugg","id":891,"type":"MIG"},{"latitude":47.476122,"longitude":8.505117,"zip":"8154","city":"Oberglatt ZH","address":"Kaiserstuhlstrasse 51","name":"Oberglatt","id":892,"type":"MIG"},{"latitude":46.393214,"longitude":6.921577,"zip":"1845","city":"Noville","address":"Route du Simplon","name":"Noville","id":893,"type":"MIG"},{"latitude":47.534457,"longitude":7.71148,"zip":"4133","city":"Pratteln","address":"Rheinstrasse 29","name":"Augst","id":894,"type":"MIG"},{"latitude":47.45403,"longitude":9.399835,"zip":"9300","city":"Wittenbach","address":"St. Gallerstrasse 47","name":"Wittenbach","id":895,"type":"MIG"},{"latitude":47.229358,"longitude":8.843869,"zip":"8645","city":"Jona","address":"St.Gallerstrasse 84","name":"Jona","id":896,"type":"MIG"},{"latitude":47.219371,"longitude":8.661552,"zip":"8820","city":"Wädenswil","address":"Herrlisberg Süd / A3","name":"Herrlisberg","id":897,"type":"MIG"},{"latitude":47.237583,"longitude":8.660421,"zip":"8820","city":"Wädenswil","address":"Seestrasse 198","name":"Wädenswil - Seestrasse","id":898,"type":"MIG"},{"latitude":47.398135,"longitude":8.605206,"zip":"8600","city":"Dübendorf","address":"Ringstrasse 17","name":"Dübendorf - Bühlwiesen","id":899,"type":"MIG"},{"latitude":46.439158,"longitude":6.905454,"zip":"1820","city":"Montreux","address":"Grand-Rue 106","name":"Montreux","id":900,"type":"MIG"},{"latitude":46.60669,"longitude":6.230001,"zip":"1347","city":"Le Sentier","address":"Rue de la gare 2","name":"Le Sentier - La Vallée (provisoire)","id":901,"type":"M"},{"latitude":46.308652,"longitude":7.969533,"zip":"3902","city":"Glis","address":"Kantonsstrasse 58","name":"Glis - Simplon","id":902,"type":"MMM"},{"latitude":46.106323,"longitude":7.087196,"zip":"1920","city":"Martigny","address":"Rue des Finettes 45","name":"Martigny Finettes","id":903,"type":"M"},{"latitude":47.491967,"longitude":9.241439,"zip":"9220","city":"Bischofszell","address":"Poststrasse 3","name":"Bischofszell","id":904,"type":"MIG"},{"latitude":47.37026,"longitude":8.492843,"zip":"8047","city":"Zürich","address":"Letzigraben 239","name":"VOI Zürich - In der Ey","id":905,"type":"VOI"},{"latitude":45.971553,"longitude":8.926606,"zip":"6916","city":"Grancia","address":"Parco Commerciale","name":"Grancia - Ristorante","id":906,"type":"MR"},{"latitude":46.300987,"longitude":7.044184,"zip":"1884","city":"Villars-sur-Ollon","address":"Rue Centrale 99","name":"Villars-sur-Ollon","id":907,"type":"DMP"},{"latitude":46.181966,"longitude":7.29191,"zip":"1997","city":"Haute-Nendaz","address":"Lake Placid, rte des Ecluses 23","name":"Haute-Nendaz","id":908,"type":"M"},{"latitude":46.216783,"longitude":6.086984,"zip":"1214","city":"Vernier","address":"Route de Vernier 184","name":"Vernier Outlet","id":909,"type":"SPEZ"},{"latitude":46.377688,"longitude":7.625224,"zip":"3954","city":"Leukerbad","address":"Kantonstrasse","name":"Leukerbad","id":910,"type":"M"},{"latitude":46.314445,"longitude":7.745404,"zip":"3940","city":"Steg VS","address":"Bahnhofstrasse","name":"Steg","id":911,"type":"M"},{"latitude":46.096353,"longitude":7.223318,"zip":"1936","city":"Verbier","address":"Les Arcades","name":"Verbier","id":912,"type":"M"},{"latitude":46.101445,"longitude":7.071948,"zip":"1920","city":"Martigny","address":"Place du Manoir","name":"Martigny - Manoir","id":913,"type":"MMM"},{"latitude":47.424124,"longitude":8.370986,"zip":"8957","city":"Spreitenbach","address":"Pfadackerstrasse 6","name":"Spreitenbach Do It + Garden","id":914,"type":"SPEZ"},{"latitude":47.265206,"longitude":8.652648,"zip":"8706","city":"Meilen","address":"Seestrasse 801","name":"Obermeilen","id":915,"type":"MIG"},{"latitude":47.274768,"longitude":8.44572,"zip":"8910","city":"Affoltern am Albis","address":"Obfelderstrasse 1","name":"Affoltern am Albis","id":916,"type":"MIG"},{"latitude":46.79894,"longitude":7.133802,"zip":"1752","city":"Villars-sur-Glâne","address":"Route de Villars 108","name":"Fribourg AMAG","id":917,"type":"MIG"},{"latitude":47.486866,"longitude":8.755103,"zip":"8405","city":"Winterthur","address":"Tösstalstrasse 205","name":"Winterthur-Seen","id":918,"type":"MIG"},{"latitude":47.169049,"longitude":9.503715,"zip":"9494","city":"Schaan","address":"Im Rösle 2","name":"Schaan","id":919,"type":"M"},{"latitude":46.506007,"longitude":6.673355,"zip":"1094","city":"Paudex","address":"Route du Simplon 20","name":"Paudex","id":920,"type":"MIG"},{"latitude":47.464228,"longitude":9.040835,"zip":"9500","city":"Wil SG","address":"Zürcherstrasse 7","name":"Wil - Zürcherstrasse","id":921,"type":"MIG"},{"latitude":46.527149,"longitude":6.602776,"zip":"1008","city":"Prilly","address":"Route de Renens 8","name":"Prilly","id":922,"type":"MIG"},{"latitude":47.702753,"longitude":8.645349,"zip":"8200","city":"Schaffhausen","address":"Grubenstrasse 80","name":"Schaffhausen - Grubenstrasse","id":923,"type":"MIG"},{"latitude":46.231915,"longitude":7.383784,"zip":"1950","city":"Sion","address":"Avenue Grand-Champsec 30","name":"Sion - Tourbillon Center","id":924,"type":"M"},{"latitude":46.224135,"longitude":6.107853,"zip":"1216","city":"Cointrin","address":"Avenue Louis-Casaï 73","name":"Genève - Cointrin","id":925,"type":"MIG"},{"latitude":46.233804,"longitude":6.054734,"zip":"1217","city":"Meyrin","address":"Rte de Meyrin 372","name":"Meyrin","id":926,"type":"MIG"},{"latitude":46.382206,"longitude":6.216749,"zip":"1260","city":"Nyon","address":"Impasse de Champ-Colin 12","name":"Nyon","id":927,"type":"MIG"},{"latitude":47.032155,"longitude":7.632601,"zip":"3414","city":"Oberburg","address":"Emmentalerstrasse 166","name":"Oberburg","id":928,"type":"MIG"},{"latitude":46.444398,"longitude":6.297275,"zip":"1183","city":"Bursins","address":"La Côte / A1 Sud","name":"Bursins","id":929,"type":"MIG"},{"latitude":47.193491,"longitude":7.405551,"zip":"2540","city":"Grenchen","address":"Solothurnerstrasse 116","name":"Grenchen","id":930,"type":"MIG"},{"latitude":47.11935,"longitude":7.242987,"zip":"2560","city":"Nidau","address":"Hauptstrasse  139","name":"Nidau","id":931,"type":"MIG"},{"latitude":46.184387,"longitude":6.103597,"zip":"1213","city":"Onex","address":"Route de Chancy 113","name":"Onex","id":932,"type":"MIG"},{"latitude":47.063523,"longitude":6.760699,"zip":"2400","city":"Le Locle","address":"Rue Girardet 27","name":"Le Locle","id":933,"type":"MIG"},{"latitude":47.654718,"longitude":9.16493,"zip":"8280","city":"Kreuzlingen","address":"Konstanzerstrasse 28","name":"Kreuzlingen","id":934,"type":"MIG"},{"latitude":46.948618,"longitude":7.396569,"zip":"3027","city":"Bern","address":"Bümplizstrasse 8","name":"Bern - Bümpliz","id":935,"type":"MIG"},{"latitude":47.525633,"longitude":7.603833,"zip":"4142","city":"Münchenstein","address":"Bruderholzstrasse 43","name":"Münchenstein","id":936,"type":"MIG"},{"latitude":46.811235,"longitude":7.139128,"zip":"1706","city":"Fribourg","address":"Route du Jura 73","name":"Fribourg Jura","id":937,"type":"MIG"},{"latitude":46.872909,"longitude":9.534465,"zip":"7000","city":"Chur","address":"Stellenweg 6","name":"Chur - West","id":938,"type":"MIG"},{"latitude":47.349961,"longitude":7.8913,"zip":"4600","city":"Olten","address":"Solothurnerstrasse 170","name":"Olten","id":939,"type":"MIG"},{"latitude":47.297239,"longitude":7.935982,"zip":"4665","city":"Oftringen","address":"Aeussere Luzernerstrasse 17","name":"Oftringen","id":940,"type":"MIG"},{"latitude":47.530185,"longitude":7.638472,"zip":"4132","city":"Muttenz","address":"St.Jakobstrasse 75","name":"Muttenz","id":941,"type":"MIG"},{"latitude":47.368254,"longitude":8.496608,"zip":"8055","city":"Zürich","address":"Birmensdorferstrasse 484","name":"Zürich - Triemli","id":942,"type":"MIG"},{"latitude":46.198871,"longitude":9.028943,"zip":"6500","city":"Bellinzona","address":"Via San Gottardo","name":"Bellinzona","id":943,"type":"MIG"},{"latitude":45.842547,"longitude":9.037184,"zip":"6833","city":"Pizzamiglio","address":"Via del Breggia 9","name":"Pizzamiglio","id":944,"type":"MIG"},{"latitude":47.484537,"longitude":8.704926,"zip":"8406","city":"Winterthur","address":"In der Au 2","name":"Winterthur In der Au","id":945,"type":"MIG"},{"latitude":46.223276,"longitude":7.300974,"zip":"1964","city":"Conthey","address":"Route des Rottes","name":"Châteauneuf - Forum des Alpes","id":959,"type":"MMM"},{"latitude":46.828706,"longitude":7.148998,"zip":"1763","city":"Granges-Paccot","address":"Route d'Englisberg 15b","name":"Granges - Paccot","id":960,"type":"M"},{"latitude":47.481623,"longitude":8.211863,"zip":"5210","city":"Windisch","address":"Bahnhofstrasse 6","name":"Brugg Campus","id":961,"type":"MR"},{"latitude":46.955675,"longitude":7.446603,"zip":"3013","city":"Bern","address":"Dammweg 9","name":"Bern - Lorraine","id":962,"type":"M"},{"latitude":46.52277,"longitude":6.564592,"zip":"1024","city":"Ecublens VD","address":"Louis Favre 8A","name":"Ecublens - EPFL","id":963,"type":"M"},{"latitude":47.412839,"longitude":8.266873,"zip":"5600","city":"Lenzburg","address":"Lenzburgerstrasse 50","name":"Mellingen","id":964,"type":"M"},{"latitude":47.163953,"longitude":9.478729,"zip":"9470","city":"Buchs SG","address":"Heldaustrasse 66","name":"Buchs Outlet","id":965,"type":"SPEZ"},{"latitude":47.362215,"longitude":7.899798,"zip":"4632","city":"Trimbach","address":"Chäppeligasse 5","name":"VOI Trimbach","id":966,"type":"VOI"},{"latitude":47.579306,"longitude":7.595575,"zip":"4057","city":"Basel","address":"Hochbergerstrasse 70","name":"Basel - Stücki","id":967,"type":"MM"},{"latitude":47.461773,"longitude":7.817299,"zip":"4450","city":"Sissach","address":"Hauptstrasse 11","name":"Sissach  (Provisorium)","id":968,"type":"M"}]
